<?xml version="1.0"?>
<gpx version="1.1" creator="GDAL 2.2.2" xmlns:xsi="http://www.w3.org/2001/XMLSchema-instance" xmlns:ogr="http://osgeo.org/gdal" xmlns="http://www.topografix.com/GPX/1/1" xsi:schemaLocation="http://www.topografix.com/GPX/1/1 http://www.topografix.com/GPX/1/1/gpx.xsd">
<metadata><bounds minlat="46.795059069510287" minlon="12.098451948178248" maxlat="47.306800673399756" maxlon="13.512060656114421"/></metadata>                  
<wpt lat="47.03097092432894" lon="12.715528775148455">
  <name>Glorer Hütte</name>
  <extensions>
    <ogr:OBJECTID>1</ogr:OBJECTID>
    <ogr:SEEHOEHE>2642</ogr:SEEHOEHE>
    <ogr:URL_INTERN>http://www.alpenvereinshuetten.at</ogr:URL_INTERN>
    <ogr:URL_EXTERN> </ogr:URL_EXTERN>
    <ogr:POI_TYP>26</ogr:POI_TYP>
    <ogr:LAND>Tirol</ogr:LAND>
    <ogr:BILDUNG>0</ogr:BILDUNG>
    <ogr:JARPRO15>1</ogr:JARPRO15>
  </extensions>
</wpt>
<wpt lat="47.054935376066105" lon="12.297944905762721">
  <name>Essener-Rostocker Hütte</name>
  <extensions>
    <ogr:OBJECTID>2</ogr:OBJECTID>
    <ogr:SEEHOEHE>2207</ogr:SEEHOEHE>
    <ogr:URL_INTERN>http://www.alpenvereinshuetten.at</ogr:URL_INTERN>
    <ogr:URL_EXTERN> </ogr:URL_EXTERN>
    <ogr:POI_TYP>26</ogr:POI_TYP>
    <ogr:LAND>Tirol</ogr:LAND>
    <ogr:BILDUNG>0</ogr:BILDUNG>
    <ogr:JARPRO15>1</ogr:JARPRO15>
  </extensions>
</wpt>
<wpt lat="47.118808997794964" lon="12.497121389477948">
  <name>Kutsche Innergschlöss</name>
  <extensions>
    <ogr:OBJECTID>3</ogr:OBJECTID>
    <ogr:SEEHOEHE>9999</ogr:SEEHOEHE>
    <ogr:URL_INTERN> </ogr:URL_INTERN>
    <ogr:URL_EXTERN> </ogr:URL_EXTERN>
    <ogr:POI_TYP>25</ogr:POI_TYP>
    <ogr:LAND>Tirol</ogr:LAND>
    <ogr:BILDUNG>0</ogr:BILDUNG>
    <ogr:JARPRO15>1</ogr:JARPRO15>
  </extensions>
</wpt>
<wpt lat="47.012030080650625" lon="12.639949272812769">
  <name>Kinderlehrweg Kals</name>
  <extensions>
    <ogr:OBJECTID>4</ogr:OBJECTID>
    <ogr:SEEHOEHE>9999</ogr:SEEHOEHE>
    <ogr:URL_INTERN> </ogr:URL_INTERN>
    <ogr:URL_EXTERN> </ogr:URL_EXTERN>
    <ogr:POI_TYP>12</ogr:POI_TYP>
    <ogr:LAND>Tirol</ogr:LAND>
    <ogr:BILDUNG>0</ogr:BILDUNG>
    <ogr:JARPRO15>1</ogr:JARPRO15>
  </extensions>
</wpt>
<wpt lat="47.026161174716876" lon="12.68921013597606">
  <name>Lehrweg Berge Denken</name>
  <extensions>
    <ogr:OBJECTID>5</ogr:OBJECTID>
    <ogr:SEEHOEHE>9999</ogr:SEEHOEHE>
    <ogr:URL_INTERN>http://www.hohetauern.at/index.php?option=com_content&amp;task=view&amp;id=231&amp;Itemid=188&amp;lang=de</ogr:URL_INTERN>
    <ogr:URL_EXTERN> </ogr:URL_EXTERN>
    <ogr:POI_TYP>12</ogr:POI_TYP>
    <ogr:LAND>Tirol</ogr:LAND>
    <ogr:BILDUNG>0</ogr:BILDUNG>
    <ogr:JARPRO15>1</ogr:JARPRO15>
  </extensions>
</wpt>
<wpt lat="46.925594959302359" lon="12.762817852391436">
  <name>Lehrweg Debanttal</name>
  <extensions>
    <ogr:OBJECTID>6</ogr:OBJECTID>
    <ogr:SEEHOEHE>9999</ogr:SEEHOEHE>
    <ogr:URL_INTERN>http://www.hohetauern.at/index.php?option=com_content&amp;task=view&amp;id=212&amp;Itemid=188&amp;lang=de</ogr:URL_INTERN>
    <ogr:URL_EXTERN> </ogr:URL_EXTERN>
    <ogr:POI_TYP>12</ogr:POI_TYP>
    <ogr:LAND>Tirol</ogr:LAND>
    <ogr:BILDUNG>0</ogr:BILDUNG>
    <ogr:JARPRO15>1</ogr:JARPRO15>
  </extensions>
</wpt>
<wpt lat="47.009442902677208" lon="12.299503190073043">
  <name>Wasserschaupfad Umbalfälle</name>
  <extensions>
    <ogr:OBJECTID>7</ogr:OBJECTID>
    <ogr:SEEHOEHE>9999</ogr:SEEHOEHE>
    <ogr:URL_INTERN>http://www.hohetauern.at/index.php?option=com_content&amp;task=view&amp;id=232&amp;Itemid=188&amp;lang=de</ogr:URL_INTERN>
    <ogr:URL_EXTERN> </ogr:URL_EXTERN>
    <ogr:POI_TYP>12</ogr:POI_TYP>
    <ogr:LAND>Tirol</ogr:LAND>
    <ogr:BILDUNG>0</ogr:BILDUNG>
    <ogr:JARPRO15>1</ogr:JARPRO15>
  </extensions>
</wpt>
<wpt lat="46.945630404350567" lon="12.21760171304237">
  <name>Lehrweg Oberhauser Zirbenwald</name>
  <extensions>
    <ogr:OBJECTID>8</ogr:OBJECTID>
    <ogr:SEEHOEHE>9999</ogr:SEEHOEHE>
    <ogr:URL_INTERN>http://www.hohetauern.at/index.php?option=com_content&amp;task=view&amp;id=218&amp;Itemid=188&amp;lang=de</ogr:URL_INTERN>
    <ogr:URL_EXTERN> </ogr:URL_EXTERN>
    <ogr:POI_TYP>12</ogr:POI_TYP>
    <ogr:LAND>Tirol</ogr:LAND>
    <ogr:BILDUNG>0</ogr:BILDUNG>
    <ogr:JARPRO15>1</ogr:JARPRO15>
  </extensions>
</wpt>
<wpt lat="47.074325767593685" lon="12.625913120757202">
  <name>Lehrweg Dorfertal</name>
  <extensions>
    <ogr:OBJECTID>9</ogr:OBJECTID>
    <ogr:SEEHOEHE>9999</ogr:SEEHOEHE>
    <ogr:URL_INTERN> </ogr:URL_INTERN>
    <ogr:URL_EXTERN> </ogr:URL_EXTERN>
    <ogr:POI_TYP>12</ogr:POI_TYP>
    <ogr:LAND>Tirol</ogr:LAND>
    <ogr:BILDUNG>0</ogr:BILDUNG>
    <ogr:JARPRO15>1</ogr:JARPRO15>
  </extensions>
</wpt>
<wpt lat="46.926694446753096" lon="12.283959719170076">
  <name>Blumenweg Oberseite</name>
  <extensions>
    <ogr:OBJECTID>10</ogr:OBJECTID>
    <ogr:SEEHOEHE>9999</ogr:SEEHOEHE>
    <ogr:URL_INTERN>http://www.hohetauern.at/index.php?option=com_content&amp;task=view&amp;id=217&amp;Itemid=188&amp;lang=de</ogr:URL_INTERN>
    <ogr:URL_EXTERN> </ogr:URL_EXTERN>
    <ogr:POI_TYP>12</ogr:POI_TYP>
    <ogr:LAND>Tirol</ogr:LAND>
    <ogr:BILDUNG>0</ogr:BILDUNG>
    <ogr:JARPRO15>1</ogr:JARPRO15>
  </extensions>
</wpt>
<wpt lat="46.918202541735631" lon="12.311965787051362">
  <name>Parkplatz Trogach</name>
  <extensions>
    <ogr:OBJECTID>11</ogr:OBJECTID>
    <ogr:SEEHOEHE>1500</ogr:SEEHOEHE>
    <ogr:URL_INTERN> </ogr:URL_INTERN>
    <ogr:URL_EXTERN> </ogr:URL_EXTERN>
    <ogr:POI_TYP>21</ogr:POI_TYP>
    <ogr:LAND>Tirol</ogr:LAND>
    <ogr:BILDUNG>0</ogr:BILDUNG>
    <ogr:JARPRO15>1</ogr:JARPRO15>
  </extensions>
</wpt>
<wpt lat="46.918870034010908" lon="12.333339349020891">
  <name>Parkplatz Trojeralmtal</name>
  <extensions>
    <ogr:OBJECTID>12</ogr:OBJECTID>
    <ogr:SEEHOEHE>1400</ogr:SEEHOEHE>
    <ogr:URL_INTERN> </ogr:URL_INTERN>
    <ogr:URL_EXTERN> </ogr:URL_EXTERN>
    <ogr:POI_TYP>21</ogr:POI_TYP>
    <ogr:LAND>Tirol</ogr:LAND>
    <ogr:BILDUNG>0</ogr:BILDUNG>
    <ogr:JARPRO15>0</ogr:JARPRO15>
  </extensions>
</wpt>
<wpt lat="46.932628317936569" lon="12.54901188961659">
  <name>Parkplatz Ratzell</name>
  <extensions>
    <ogr:OBJECTID>13</ogr:OBJECTID>
    <ogr:SEEHOEHE>1490</ogr:SEEHOEHE>
    <ogr:URL_INTERN> </ogr:URL_INTERN>
    <ogr:URL_EXTERN> </ogr:URL_EXTERN>
    <ogr:POI_TYP>21</ogr:POI_TYP>
    <ogr:LAND>Tirol</ogr:LAND>
    <ogr:BILDUNG>0</ogr:BILDUNG>
    <ogr:JARPRO15>1</ogr:JARPRO15>
  </extensions>
</wpt>
<wpt lat="46.988082081370244" lon="12.512183207710095">
  <name>Parkplatz Guggenberg</name>
  <extensions>
    <ogr:OBJECTID>14</ogr:OBJECTID>
    <ogr:SEEHOEHE>1148</ogr:SEEHOEHE>
    <ogr:URL_INTERN> </ogr:URL_INTERN>
    <ogr:URL_EXTERN> </ogr:URL_EXTERN>
    <ogr:POI_TYP>21</ogr:POI_TYP>
    <ogr:LAND>Tirol</ogr:LAND>
    <ogr:BILDUNG>0</ogr:BILDUNG>
    <ogr:JARPRO15>1</ogr:JARPRO15>
  </extensions>
</wpt>
<wpt lat="47.003556892224715" lon="12.503342086047956">
  <name>Parkplatz Zedlacher Paradies</name>
  <extensions>
    <ogr:OBJECTID>15</ogr:OBJECTID>
    <ogr:SEEHOEHE>1320</ogr:SEEHOEHE>
    <ogr:URL_INTERN> </ogr:URL_INTERN>
    <ogr:URL_EXTERN> </ogr:URL_EXTERN>
    <ogr:POI_TYP>21</ogr:POI_TYP>
    <ogr:LAND>Tirol</ogr:LAND>
    <ogr:BILDUNG>0</ogr:BILDUNG>
    <ogr:JARPRO15>1</ogr:JARPRO15>
  </extensions>
</wpt>
<wpt lat="47.122818040193856" lon="12.431766322991423">
  <name>Gletscherlehrweg Innergschlöß</name>
  <extensions>
    <ogr:OBJECTID>16</ogr:OBJECTID>
    <ogr:SEEHOEHE>9999</ogr:SEEHOEHE>
    <ogr:URL_INTERN>http://www.hohetauern.at/index.php?option=com_content&amp;task=view&amp;id=214&amp;Itemid=188&amp;lang=de</ogr:URL_INTERN>
    <ogr:URL_EXTERN> </ogr:URL_EXTERN>
    <ogr:POI_TYP>12</ogr:POI_TYP>
    <ogr:LAND>Tirol</ogr:LAND>
    <ogr:BILDUNG>0</ogr:BILDUNG>
    <ogr:JARPRO15>1</ogr:JARPRO15>
  </extensions>
</wpt>
<wpt lat="47.011487424144818" lon="12.447675901001997">
  <name>Parkplatz Marin</name>
  <extensions>
    <ogr:OBJECTID>17</ogr:OBJECTID>
    <ogr:SEEHOEHE>1385</ogr:SEEHOEHE>
    <ogr:URL_INTERN> </ogr:URL_INTERN>
    <ogr:URL_EXTERN> </ogr:URL_EXTERN>
    <ogr:POI_TYP>21</ogr:POI_TYP>
    <ogr:LAND>Tirol</ogr:LAND>
    <ogr:BILDUNG>0</ogr:BILDUNG>
    <ogr:JARPRO15>1</ogr:JARPRO15>
  </extensions>
</wpt>
<wpt lat="47.022407484143201" lon="12.399359724635113">
  <name>Parkplatz zur Bodenalm</name>
  <extensions>
    <ogr:OBJECTID>18</ogr:OBJECTID>
    <ogr:SEEHOEHE>9999</ogr:SEEHOEHE>
    <ogr:URL_INTERN> </ogr:URL_INTERN>
    <ogr:URL_EXTERN> </ogr:URL_EXTERN>
    <ogr:POI_TYP>21</ogr:POI_TYP>
    <ogr:LAND>Tirol</ogr:LAND>
    <ogr:BILDUNG>0</ogr:BILDUNG>
    <ogr:JARPRO15>1</ogr:JARPRO15>
  </extensions>
</wpt>
<wpt lat="47.016064520093991" lon="12.319426084895523">
  <name>Zubringer Pebellalm</name>
  <extensions>
    <ogr:OBJECTID>19</ogr:OBJECTID>
    <ogr:SEEHOEHE>9999</ogr:SEEHOEHE>
    <ogr:URL_INTERN> </ogr:URL_INTERN>
    <ogr:URL_EXTERN> </ogr:URL_EXTERN>
    <ogr:POI_TYP>25</ogr:POI_TYP>
    <ogr:LAND>Tirol</ogr:LAND>
    <ogr:BILDUNG>0</ogr:BILDUNG>
    <ogr:JARPRO15>1</ogr:JARPRO15>
  </extensions>
</wpt>
<wpt lat="47.00046154461635" lon="12.540788125650018">
  <name>Nationalparkhaus Matrei</name>
  <extensions>
    <ogr:OBJECTID>20</ogr:OBJECTID>
    <ogr:SEEHOEHE>950</ogr:SEEHOEHE>
    <ogr:URL_INTERN>http://www.hohetauern.at/index.php?option=com_content&amp;task=view&amp;id=275&amp;Itemid=205&amp;lang=de</ogr:URL_INTERN>
    <ogr:URL_EXTERN> </ogr:URL_EXTERN>
    <ogr:POI_TYP>10</ogr:POI_TYP>
    <ogr:LAND>Tirol</ogr:LAND>
    <ogr:BILDUNG>1</ogr:BILDUNG>
    <ogr:JARPRO15>1</ogr:JARPRO15>
  </extensions>
</wpt>
<wpt lat="46.838252234429639" lon="12.844073243394476">
  <name>NP-Infostelle Iselsberg</name>
  <extensions>
    <ogr:OBJECTID>21</ogr:OBJECTID>
    <ogr:SEEHOEHE>1117</ogr:SEEHOEHE>
    <ogr:URL_INTERN>http://www.hohetauern.at/index.php?option=com_content&amp;task=view&amp;id=276&amp;Itemid=111&amp;lang=de</ogr:URL_INTERN>
    <ogr:URL_EXTERN> </ogr:URL_EXTERN>
    <ogr:POI_TYP>11</ogr:POI_TYP>
    <ogr:LAND>Tirol</ogr:LAND>
    <ogr:BILDUNG>0</ogr:BILDUNG>
    <ogr:JARPRO15>1</ogr:JARPRO15>
  </extensions>
</wpt>
<wpt lat="47.001302538788792" lon="12.644970515925023">
  <name>NP-Infostelle Kals</name>
  <extensions>
    <ogr:OBJECTID>22</ogr:OBJECTID>
    <ogr:SEEHOEHE>1324</ogr:SEEHOEHE>
    <ogr:URL_INTERN>http://www.hohetauern.at/index.php?option=com_content&amp;task=view&amp;id=279&amp;Itemid=175&amp;lang=de</ogr:URL_INTERN>
    <ogr:URL_EXTERN> </ogr:URL_EXTERN>
    <ogr:POI_TYP>11</ogr:POI_TYP>
    <ogr:LAND>Tirol</ogr:LAND>
    <ogr:BILDUNG>0</ogr:BILDUNG>
    <ogr:JARPRO15>1</ogr:JARPRO15>
  </extensions>
</wpt>
<wpt lat="46.916382939976977" lon="12.330929570231834">
  <name>NP-Infostelle Handelhaus</name>
  <extensions>
    <ogr:OBJECTID>23</ogr:OBJECTID>
    <ogr:SEEHOEHE>1389</ogr:SEEHOEHE>
    <ogr:URL_INTERN>http://www.hohetauern.at/index.php?option=com_content&amp;task=view&amp;id=277&amp;Itemid=111&amp;lang=de</ogr:URL_INTERN>
    <ogr:URL_EXTERN> </ogr:URL_EXTERN>
    <ogr:POI_TYP>11</ogr:POI_TYP>
    <ogr:LAND>Tirol</ogr:LAND>
    <ogr:BILDUNG>1</ogr:BILDUNG>
    <ogr:JARPRO15>1</ogr:JARPRO15>
  </extensions>
</wpt>
<wpt lat="47.013242663576968" lon="12.556305897342778">
  <name>Parkplatz Glanz</name>
  <extensions>
    <ogr:OBJECTID>24</ogr:OBJECTID>
    <ogr:SEEHOEHE>1530</ogr:SEEHOEHE>
    <ogr:URL_INTERN> </ogr:URL_INTERN>
    <ogr:URL_EXTERN> </ogr:URL_EXTERN>
    <ogr:POI_TYP>21</ogr:POI_TYP>
    <ogr:LAND>Tirol</ogr:LAND>
    <ogr:BILDUNG>0</ogr:BILDUNG>
    <ogr:JARPRO15>1</ogr:JARPRO15>
  </extensions>
</wpt>
<wpt lat="47.022711033404605" lon="12.637575731366118">
  <name>Parkplatz Dorfertal/Teischnitztal</name>
  <extensions>
    <ogr:OBJECTID>25</ogr:OBJECTID>
    <ogr:SEEHOEHE>1489</ogr:SEEHOEHE>
    <ogr:URL_INTERN> </ogr:URL_INTERN>
    <ogr:URL_EXTERN> </ogr:URL_EXTERN>
    <ogr:POI_TYP>21</ogr:POI_TYP>
    <ogr:LAND>Tirol</ogr:LAND>
    <ogr:BILDUNG>0</ogr:BILDUNG>
    <ogr:JARPRO15>1</ogr:JARPRO15>
  </extensions>
</wpt>
<wpt lat="46.935099082655128" lon="12.414745968370324">
  <name>Parkplatz Speikbodenhütte</name>
  <extensions>
    <ogr:OBJECTID>26</ogr:OBJECTID>
    <ogr:SEEHOEHE>2079</ogr:SEEHOEHE>
    <ogr:URL_INTERN> </ogr:URL_INTERN>
    <ogr:URL_EXTERN> </ogr:URL_EXTERN>
    <ogr:POI_TYP>21</ogr:POI_TYP>
    <ogr:LAND>Tirol</ogr:LAND>
    <ogr:BILDUNG>0</ogr:BILDUNG>
    <ogr:JARPRO15>1</ogr:JARPRO15>
  </extensions>
</wpt>
<wpt lat="47.018129882500467" lon="12.33982680689396">
  <name>Parkplatz Hinterbichl</name>
  <extensions>
    <ogr:OBJECTID>27</ogr:OBJECTID>
    <ogr:SEEHOEHE>1330</ogr:SEEHOEHE>
    <ogr:URL_INTERN> </ogr:URL_INTERN>
    <ogr:URL_EXTERN> </ogr:URL_EXTERN>
    <ogr:POI_TYP>21</ogr:POI_TYP>
    <ogr:LAND>Tirol</ogr:LAND>
    <ogr:BILDUNG>0</ogr:BILDUNG>
    <ogr:JARPRO15>0</ogr:JARPRO15>
  </extensions>
</wpt>
<wpt lat="46.915193484958451" lon="12.776116548390327">
  <name>Parkplatz Seichenbrunn im Debanttal</name>
  <extensions>
    <ogr:OBJECTID>28</ogr:OBJECTID>
    <ogr:SEEHOEHE>1668</ogr:SEEHOEHE>
    <ogr:URL_INTERN> </ogr:URL_INTERN>
    <ogr:URL_EXTERN> </ogr:URL_EXTERN>
    <ogr:POI_TYP>21</ogr:POI_TYP>
    <ogr:LAND>Tirol</ogr:LAND>
    <ogr:BILDUNG>0</ogr:BILDUNG>
    <ogr:JARPRO15>1</ogr:JARPRO15>
  </extensions>
</wpt>
<wpt lat="46.89120576124413" lon="12.202264195063183">
  <name>Parkplatz Oberseehütte</name>
  <extensions>
    <ogr:OBJECTID>29</ogr:OBJECTID>
    <ogr:SEEHOEHE>2016</ogr:SEEHOEHE>
    <ogr:URL_INTERN> </ogr:URL_INTERN>
    <ogr:URL_EXTERN> </ogr:URL_EXTERN>
    <ogr:POI_TYP>21</ogr:POI_TYP>
    <ogr:LAND>Tirol</ogr:LAND>
    <ogr:BILDUNG>0</ogr:BILDUNG>
    <ogr:JARPRO15>1</ogr:JARPRO15>
  </extensions>
</wpt>
<wpt lat="46.943703771417525" lon="12.220542629848705">
  <name>Parkplatz Oberhaus</name>
  <extensions>
    <ogr:OBJECTID>30</ogr:OBJECTID>
    <ogr:SEEHOEHE>1768</ogr:SEEHOEHE>
    <ogr:URL_INTERN> </ogr:URL_INTERN>
    <ogr:URL_EXTERN> </ogr:URL_EXTERN>
    <ogr:POI_TYP>21</ogr:POI_TYP>
    <ogr:LAND>Tirol</ogr:LAND>
    <ogr:BILDUNG>0</ogr:BILDUNG>
    <ogr:JARPRO15>1</ogr:JARPRO15>
  </extensions>
</wpt>
<wpt lat="46.916901216103128" lon="12.256454122095201">
  <name>Parkplatz Erlsbach</name>
  <extensions>
    <ogr:OBJECTID>31</ogr:OBJECTID>
    <ogr:SEEHOEHE>1549</ogr:SEEHOEHE>
    <ogr:URL_INTERN> </ogr:URL_INTERN>
    <ogr:URL_EXTERN> </ogr:URL_EXTERN>
    <ogr:POI_TYP>21</ogr:POI_TYP>
    <ogr:LAND>Tirol</ogr:LAND>
    <ogr:BILDUNG>0</ogr:BILDUNG>
    <ogr:JARPRO15>1</ogr:JARPRO15>
  </extensions>
</wpt>
<wpt lat="47.118321900659318" lon="12.49830068264848">
  <name>Parkplatz Matreier Tauernhaus</name>
  <extensions>
    <ogr:OBJECTID>32</ogr:OBJECTID>
    <ogr:SEEHOEHE>1510</ogr:SEEHOEHE>
    <ogr:URL_INTERN> </ogr:URL_INTERN>
    <ogr:URL_EXTERN> </ogr:URL_EXTERN>
    <ogr:POI_TYP>21</ogr:POI_TYP>
    <ogr:LAND>Tirol</ogr:LAND>
    <ogr:BILDUNG>0</ogr:BILDUNG>
    <ogr:JARPRO15>1</ogr:JARPRO15>
  </extensions>
</wpt>
<wpt lat="47.016807037368253" lon="12.319360235664236">
  <name>Parkplatz Ströden</name>
  <extensions>
    <ogr:OBJECTID>33</ogr:OBJECTID>
    <ogr:SEEHOEHE>1403</ogr:SEEHOEHE>
    <ogr:URL_INTERN> </ogr:URL_INTERN>
    <ogr:URL_EXTERN> </ogr:URL_EXTERN>
    <ogr:POI_TYP>21</ogr:POI_TYP>
    <ogr:LAND>Tirol</ogr:LAND>
    <ogr:BILDUNG>0</ogr:BILDUNG>
    <ogr:JARPRO15>1</ogr:JARPRO15>
  </extensions>
</wpt>
<wpt lat="47.118852493985408" lon="12.497433694931463">
  <name>Taxi Innergschlöß</name>
  <extensions>
    <ogr:OBJECTID>34</ogr:OBJECTID>
    <ogr:SEEHOEHE>1511</ogr:SEEHOEHE>
    <ogr:URL_INTERN> </ogr:URL_INTERN>
    <ogr:URL_EXTERN> </ogr:URL_EXTERN>
    <ogr:POI_TYP>22</ogr:POI_TYP>
    <ogr:LAND>Tirol</ogr:LAND>
    <ogr:BILDUNG>0</ogr:BILDUNG>
    <ogr:JARPRO15>1</ogr:JARPRO15>
  </extensions>
</wpt>
<wpt lat="47.022271750933314" lon="12.63802266275621">
  <name>Taxi Kalser Tauernhaus</name>
  <extensions>
    <ogr:OBJECTID>35</ogr:OBJECTID>
    <ogr:SEEHOEHE>9999</ogr:SEEHOEHE>
    <ogr:URL_INTERN> </ogr:URL_INTERN>
    <ogr:URL_EXTERN> </ogr:URL_EXTERN>
    <ogr:POI_TYP>22</ogr:POI_TYP>
    <ogr:LAND>Tirol</ogr:LAND>
    <ogr:BILDUNG>0</ogr:BILDUNG>
    <ogr:JARPRO15>1</ogr:JARPRO15>
  </extensions>
</wpt>
<wpt lat="46.996147313151944" lon="12.452789313555993">
  <name>Wetterkreuztaxi</name>
  <extensions>
    <ogr:OBJECTID>36</ogr:OBJECTID>
    <ogr:SEEHOEHE>9999</ogr:SEEHOEHE>
    <ogr:URL_INTERN> </ogr:URL_INTERN>
    <ogr:URL_EXTERN> </ogr:URL_EXTERN>
    <ogr:POI_TYP>22</ogr:POI_TYP>
    <ogr:LAND>Tirol</ogr:LAND>
    <ogr:BILDUNG>0</ogr:BILDUNG>
    <ogr:JARPRO15>0</ogr:JARPRO15>
  </extensions>
</wpt>
<wpt lat="46.881501566894421" lon="12.839669091029737">
  <name>Parkplatz Roaneralm</name>
  <extensions>
    <ogr:OBJECTID>37</ogr:OBJECTID>
    <ogr:SEEHOEHE>1903</ogr:SEEHOEHE>
    <ogr:URL_INTERN> </ogr:URL_INTERN>
    <ogr:URL_EXTERN> </ogr:URL_EXTERN>
    <ogr:POI_TYP>21</ogr:POI_TYP>
    <ogr:LAND>Tirol</ogr:LAND>
    <ogr:BILDUNG>0</ogr:BILDUNG>
    <ogr:JARPRO15>0</ogr:JARPRO15>
  </extensions>
</wpt>
<wpt lat="46.873211323028521" lon="12.842790276284815">
  <name>Parkplatz Winklerneralm</name>
  <extensions>
    <ogr:OBJECTID>38</ogr:OBJECTID>
    <ogr:SEEHOEHE>1870</ogr:SEEHOEHE>
    <ogr:URL_INTERN> </ogr:URL_INTERN>
    <ogr:URL_EXTERN> </ogr:URL_EXTERN>
    <ogr:POI_TYP>21</ogr:POI_TYP>
    <ogr:LAND>Tirol</ogr:LAND>
    <ogr:BILDUNG>0</ogr:BILDUNG>
    <ogr:JARPRO15>0</ogr:JARPRO15>
  </extensions>
</wpt>
<wpt lat="46.917152780474197" lon="12.168945198073386">
  <name>Barmer Hütte</name>
  <extensions>
    <ogr:OBJECTID>39</ogr:OBJECTID>
    <ogr:SEEHOEHE>2591</ogr:SEEHOEHE>
    <ogr:URL_INTERN>http://www.alpenvereinshuetten.at</ogr:URL_INTERN>
    <ogr:URL_EXTERN> </ogr:URL_EXTERN>
    <ogr:POI_TYP>26</ogr:POI_TYP>
    <ogr:LAND>Tirol</ogr:LAND>
    <ogr:BILDUNG>0</ogr:BILDUNG>
    <ogr:JARPRO15>1</ogr:JARPRO15>
  </extensions>
</wpt>
<wpt lat="46.89120576124413" lon="12.202264195063183">
  <name>Oberseehütte</name>
  <extensions>
    <ogr:OBJECTID>40</ogr:OBJECTID>
    <ogr:SEEHOEHE>2016</ogr:SEEHOEHE>
    <ogr:URL_INTERN>http://www.alpenvereinshuetten.at</ogr:URL_INTERN>
    <ogr:URL_EXTERN> </ogr:URL_EXTERN>
    <ogr:POI_TYP>27</ogr:POI_TYP>
    <ogr:LAND>Tirol</ogr:LAND>
    <ogr:BILDUNG>0</ogr:BILDUNG>
    <ogr:JARPRO15>1</ogr:JARPRO15>
  </extensions>
</wpt>
<wpt lat="46.92820596089522" lon="12.225991188901258">
  <name>Patscher Hütte</name>
  <extensions>
    <ogr:OBJECTID>41</ogr:OBJECTID>
    <ogr:SEEHOEHE>1685</ogr:SEEHOEHE>
    <ogr:URL_INTERN>http://www.alpenvereinshuetten.at</ogr:URL_INTERN>
    <ogr:URL_EXTERN> </ogr:URL_EXTERN>
    <ogr:POI_TYP>26</ogr:POI_TYP>
    <ogr:LAND>Tirol</ogr:LAND>
    <ogr:BILDUNG>0</ogr:BILDUNG>
    <ogr:JARPRO15>1</ogr:JARPRO15>
  </extensions>
</wpt>
<wpt lat="47.015966866417074" lon="12.245869444647434">
  <name>Clarahütte</name>
  <extensions>
    <ogr:OBJECTID>42</ogr:OBJECTID>
    <ogr:SEEHOEHE>2036</ogr:SEEHOEHE>
    <ogr:URL_INTERN>http://www.alpenvereinshuetten.at</ogr:URL_INTERN>
    <ogr:URL_EXTERN> </ogr:URL_EXTERN>
    <ogr:POI_TYP>26</ogr:POI_TYP>
    <ogr:LAND>Tirol</ogr:LAND>
    <ogr:BILDUNG>0</ogr:BILDUNG>
    <ogr:JARPRO15>1</ogr:JARPRO15>
  </extensions>
</wpt>
<wpt lat="46.901496314324248" lon="12.282939991083408">
  <name>Blindisalm</name>
  <extensions>
    <ogr:OBJECTID>43</ogr:OBJECTID>
    <ogr:SEEHOEHE>1894</ogr:SEEHOEHE>
    <ogr:URL_INTERN> </ogr:URL_INTERN>
    <ogr:URL_EXTERN> </ogr:URL_EXTERN>
    <ogr:POI_TYP>27</ogr:POI_TYP>
    <ogr:LAND>Tirol</ogr:LAND>
    <ogr:BILDUNG>0</ogr:BILDUNG>
    <ogr:JARPRO15>1</ogr:JARPRO15>
  </extensions>
</wpt>
<wpt lat="47.008504780222324" lon="12.304400159287709">
  <name>Pebellalm</name>
  <extensions>
    <ogr:OBJECTID>44</ogr:OBJECTID>
    <ogr:SEEHOEHE>1509</ogr:SEEHOEHE>
    <ogr:URL_INTERN> </ogr:URL_INTERN>
    <ogr:URL_EXTERN> </ogr:URL_EXTERN>
    <ogr:POI_TYP>27</ogr:POI_TYP>
    <ogr:LAND>Tirol</ogr:LAND>
    <ogr:BILDUNG>0</ogr:BILDUNG>
    <ogr:JARPRO15>1</ogr:JARPRO15>
  </extensions>
</wpt>
<wpt lat="47.009217553604756" lon="12.304713378240846">
  <name>Islitzeralm</name>
  <extensions>
    <ogr:OBJECTID>45</ogr:OBJECTID>
    <ogr:SEEHOEHE>1513</ogr:SEEHOEHE>
    <ogr:URL_INTERN> </ogr:URL_INTERN>
    <ogr:URL_EXTERN> </ogr:URL_EXTERN>
    <ogr:POI_TYP>27</ogr:POI_TYP>
    <ogr:LAND>Tirol</ogr:LAND>
    <ogr:BILDUNG>0</ogr:BILDUNG>
    <ogr:JARPRO15>1</ogr:JARPRO15>
  </extensions>
</wpt>
<wpt lat="47.025017273804863" lon="12.316376904738652">
  <name>Stoanalm</name>
  <extensions>
    <ogr:OBJECTID>46</ogr:OBJECTID>
    <ogr:SEEHOEHE>1469</ogr:SEEHOEHE>
    <ogr:URL_INTERN> </ogr:URL_INTERN>
    <ogr:URL_EXTERN> </ogr:URL_EXTERN>
    <ogr:POI_TYP>27</ogr:POI_TYP>
    <ogr:LAND>Tirol</ogr:LAND>
    <ogr:BILDUNG>0</ogr:BILDUNG>
    <ogr:JARPRO15>1</ogr:JARPRO15>
  </extensions>
</wpt>
<wpt lat="46.947508096850733" lon="12.31995092329908">
  <name>Vordere Trojeralm</name>
  <extensions>
    <ogr:OBJECTID>47</ogr:OBJECTID>
    <ogr:SEEHOEHE>1818</ogr:SEEHOEHE>
    <ogr:URL_INTERN> </ogr:URL_INTERN>
    <ogr:URL_EXTERN> </ogr:URL_EXTERN>
    <ogr:POI_TYP>27</ogr:POI_TYP>
    <ogr:LAND>Tirol</ogr:LAND>
    <ogr:BILDUNG>0</ogr:BILDUNG>
    <ogr:JARPRO15>1</ogr:JARPRO15>
  </extensions>
</wpt>
<wpt lat="47.060003481955341" lon="12.334401677500166">
  <name>Johannishütte</name>
  <extensions>
    <ogr:OBJECTID>48</ogr:OBJECTID>
    <ogr:SEEHOEHE>2116</ogr:SEEHOEHE>
    <ogr:URL_INTERN>http://www.alpenvereinshuetten.at</ogr:URL_INTERN>
    <ogr:URL_EXTERN> </ogr:URL_EXTERN>
    <ogr:POI_TYP>26</ogr:POI_TYP>
    <ogr:LAND>Tirol</ogr:LAND>
    <ogr:BILDUNG>0</ogr:BILDUNG>
    <ogr:JARPRO15>1</ogr:JARPRO15>
  </extensions>
</wpt>
<wpt lat="46.994253176080448" lon="12.339410908763282">
  <name>Lasnitzenalm</name>
  <extensions>
    <ogr:OBJECTID>49</ogr:OBJECTID>
    <ogr:SEEHOEHE>1900</ogr:SEEHOEHE>
    <ogr:URL_INTERN> </ogr:URL_INTERN>
    <ogr:URL_EXTERN> </ogr:URL_EXTERN>
    <ogr:POI_TYP>26</ogr:POI_TYP>
    <ogr:LAND>Tirol</ogr:LAND>
    <ogr:BILDUNG>0</ogr:BILDUNG>
    <ogr:JARPRO15>1</ogr:JARPRO15>
  </extensions>
</wpt>
<wpt lat="47.038026906213624" lon="12.353433656799618">
  <name>Sajathütte</name>
  <extensions>
    <ogr:OBJECTID>50</ogr:OBJECTID>
    <ogr:SEEHOEHE>2575</ogr:SEEHOEHE>
    <ogr:URL_INTERN>http://www.alpenvereinshuetten.at</ogr:URL_INTERN>
    <ogr:URL_EXTERN> </ogr:URL_EXTERN>
    <ogr:POI_TYP>26</ogr:POI_TYP>
    <ogr:LAND>Tirol</ogr:LAND>
    <ogr:BILDUNG>0</ogr:BILDUNG>
    <ogr:JARPRO15>1</ogr:JARPRO15>
  </extensions>
</wpt>
<wpt lat="46.989172959704902" lon="12.362132394635179">
  <name>Berger-See-Hütte</name>
  <extensions>
    <ogr:OBJECTID>51</ogr:OBJECTID>
    <ogr:SEEHOEHE>2181</ogr:SEEHOEHE>
    <ogr:URL_INTERN>http://www.alpenvereinshuetten.at</ogr:URL_INTERN>
    <ogr:URL_EXTERN> </ogr:URL_EXTERN>
    <ogr:POI_TYP>26</ogr:POI_TYP>
    <ogr:LAND>Tirol</ogr:LAND>
    <ogr:BILDUNG>0</ogr:BILDUNG>
    <ogr:JARPRO15>1</ogr:JARPRO15>
  </extensions>
</wpt>
<wpt lat="47.083653159781406" lon="12.362302017938008">
  <name>Defregger Haus</name>
  <extensions>
    <ogr:OBJECTID>52</ogr:OBJECTID>
    <ogr:SEEHOEHE>2963</ogr:SEEHOEHE>
    <ogr:URL_INTERN>http://www.alpenvereinshuetten.at</ogr:URL_INTERN>
    <ogr:URL_EXTERN> </ogr:URL_EXTERN>
    <ogr:POI_TYP>26</ogr:POI_TYP>
    <ogr:LAND>Tirol</ogr:LAND>
    <ogr:BILDUNG>0</ogr:BILDUNG>
    <ogr:JARPRO15>1</ogr:JARPRO15>
  </extensions>
</wpt>
<wpt lat="46.930909147312008" lon="12.279728203567126">
  <name>Seespitzhütte (Frölitzalm)</name>
  <extensions>
    <ogr:OBJECTID>53</ogr:OBJECTID>
    <ogr:SEEHOEHE>2327</ogr:SEEHOEHE>
    <ogr:URL_INTERN> </ogr:URL_INTERN>
    <ogr:URL_EXTERN> </ogr:URL_EXTERN>
    <ogr:POI_TYP>26</ogr:POI_TYP>
    <ogr:LAND>Tirol</ogr:LAND>
    <ogr:BILDUNG>0</ogr:BILDUNG>
    <ogr:JARPRO15>1</ogr:JARPRO15>
  </extensions>
</wpt>
<wpt lat="47.024460605584508" lon="12.339926833235369">
  <name>Stabanthütte</name>
  <extensions>
    <ogr:OBJECTID>54</ogr:OBJECTID>
    <ogr:SEEHOEHE>1800</ogr:SEEHOEHE>
    <ogr:URL_INTERN> </ogr:URL_INTERN>
    <ogr:URL_EXTERN> </ogr:URL_EXTERN>
    <ogr:POI_TYP>26</ogr:POI_TYP>
    <ogr:LAND>Tirol</ogr:LAND>
    <ogr:BILDUNG>0</ogr:BILDUNG>
    <ogr:JARPRO15>1</ogr:JARPRO15>
  </extensions>
</wpt>
<wpt lat="46.957048733862187" lon="12.376899338761476">
  <name>Lasörlinghütte</name>
  <extensions>
    <ogr:OBJECTID>55</ogr:OBJECTID>
    <ogr:SEEHOEHE>2296</ogr:SEEHOEHE>
    <ogr:URL_INTERN>http://www.alpenvereinshuetten.at</ogr:URL_INTERN>
    <ogr:URL_EXTERN> </ogr:URL_EXTERN>
    <ogr:POI_TYP>26</ogr:POI_TYP>
    <ogr:LAND>Tirol</ogr:LAND>
    <ogr:BILDUNG>0</ogr:BILDUNG>
    <ogr:JARPRO15>1</ogr:JARPRO15>
  </extensions>
</wpt>
<wpt lat="47.055604627161586" lon="12.378924611877064">
  <name>Eisseehütte</name>
  <extensions>
    <ogr:OBJECTID>56</ogr:OBJECTID>
    <ogr:SEEHOEHE>2521</ogr:SEEHOEHE>
    <ogr:URL_INTERN>http://www.alpenvereinshuetten.at</ogr:URL_INTERN>
    <ogr:URL_EXTERN> </ogr:URL_EXTERN>
    <ogr:POI_TYP>26</ogr:POI_TYP>
    <ogr:LAND>Tirol</ogr:LAND>
    <ogr:BILDUNG>0</ogr:BILDUNG>
    <ogr:JARPRO15>1</ogr:JARPRO15>
  </extensions>
</wpt>
<wpt lat="46.903592477267836" lon="12.389687748738103">
  <name>Leppetalalm</name>
  <extensions>
    <ogr:OBJECTID>57</ogr:OBJECTID>
    <ogr:SEEHOEHE>1930</ogr:SEEHOEHE>
    <ogr:URL_INTERN> </ogr:URL_INTERN>
    <ogr:URL_EXTERN> </ogr:URL_EXTERN>
    <ogr:POI_TYP>27</ogr:POI_TYP>
    <ogr:LAND>Tirol</ogr:LAND>
    <ogr:BILDUNG>0</ogr:BILDUNG>
    <ogr:JARPRO15>1</ogr:JARPRO15>
  </extensions>
</wpt>
<wpt lat="46.971281117761727" lon="12.279409184043496">
  <name>Reichenberger Hütte</name>
  <extensions>
    <ogr:OBJECTID>58</ogr:OBJECTID>
    <ogr:SEEHOEHE>2586</ogr:SEEHOEHE>
    <ogr:URL_INTERN>http://www.alpenvereinshuetten.at</ogr:URL_INTERN>
    <ogr:URL_EXTERN> </ogr:URL_EXTERN>
    <ogr:POI_TYP>26</ogr:POI_TYP>
    <ogr:LAND>Tirol</ogr:LAND>
    <ogr:BILDUNG>0</ogr:BILDUNG>
    <ogr:JARPRO15>1</ogr:JARPRO15>
  </extensions>
</wpt>
<wpt lat="47.027830592003696" lon="12.387712603994784">
  <name>Bodenalm</name>
  <extensions>
    <ogr:OBJECTID>59</ogr:OBJECTID>
    <ogr:SEEHOEHE>1948</ogr:SEEHOEHE>
    <ogr:URL_INTERN>http://www.alpenvereinshuetten.at</ogr:URL_INTERN>
    <ogr:URL_EXTERN> </ogr:URL_EXTERN>
    <ogr:POI_TYP>27</ogr:POI_TYP>
    <ogr:LAND>Tirol</ogr:LAND>
    <ogr:BILDUNG>0</ogr:BILDUNG>
    <ogr:JARPRO15>1</ogr:JARPRO15>
  </extensions>
</wpt>
<wpt lat="47.123082596160771" lon="12.392308051790783">
  <name>Neue Prager Hütte</name>
  <extensions>
    <ogr:OBJECTID>60</ogr:OBJECTID>
    <ogr:SEEHOEHE>2782</ogr:SEEHOEHE>
    <ogr:URL_INTERN>http://www.alpenvereinshuetten.at</ogr:URL_INTERN>
    <ogr:URL_EXTERN> </ogr:URL_EXTERN>
    <ogr:POI_TYP>26</ogr:POI_TYP>
    <ogr:LAND>Tirol</ogr:LAND>
    <ogr:BILDUNG>0</ogr:BILDUNG>
    <ogr:JARPRO15>1</ogr:JARPRO15>
  </extensions>
</wpt>
<wpt lat="46.957111497954727" lon="12.410277220521037">
  <name>Merschenalm</name>
  <extensions>
    <ogr:OBJECTID>61</ogr:OBJECTID>
    <ogr:SEEHOEHE>2248</ogr:SEEHOEHE>
    <ogr:URL_INTERN> </ogr:URL_INTERN>
    <ogr:URL_EXTERN> </ogr:URL_EXTERN>
    <ogr:POI_TYP>27</ogr:POI_TYP>
    <ogr:LAND>Tirol</ogr:LAND>
    <ogr:BILDUNG>0</ogr:BILDUNG>
    <ogr:JARPRO15>1</ogr:JARPRO15>
  </extensions>
</wpt>
<wpt lat="46.824878563126447" lon="12.893705702463533">
  <name>Anna Schutzhaus</name>
  <extensions>
    <ogr:OBJECTID>62</ogr:OBJECTID>
    <ogr:SEEHOEHE>2062</ogr:SEEHOEHE>
    <ogr:URL_INTERN> </ogr:URL_INTERN>
    <ogr:URL_EXTERN> </ogr:URL_EXTERN>
    <ogr:POI_TYP>26</ogr:POI_TYP>
    <ogr:LAND>Tirol</ogr:LAND>
    <ogr:BILDUNG>0</ogr:BILDUNG>
  </extensions>
</wpt>
<wpt lat="47.005644893347721" lon="12.497453176380336">
  <name>Waldlehrweg Zedlacher Paradies</name>
  <extensions>
    <ogr:OBJECTID>63</ogr:OBJECTID>
    <ogr:SEEHOEHE>1400</ogr:SEEHOEHE>
    <ogr:URL_INTERN>http://www.hohetauern.at/index.php?option=com_content&amp;task=view&amp;id=233&amp;Itemid=184&amp;lang=de</ogr:URL_INTERN>
    <ogr:URL_EXTERN> </ogr:URL_EXTERN>
    <ogr:POI_TYP>12</ogr:POI_TYP>
    <ogr:LAND>Tirol</ogr:LAND>
    <ogr:BILDUNG>0</ogr:BILDUNG>
    <ogr:JARPRO15>1</ogr:JARPRO15>
  </extensions>
</wpt>
<wpt lat="47.010061576221617" lon="12.517841900791781">
  <name>Strumerhof</name>
  <extensions>
    <ogr:OBJECTID>64</ogr:OBJECTID>
    <ogr:SEEHOEHE>1445</ogr:SEEHOEHE>
    <ogr:URL_INTERN> </ogr:URL_INTERN>
    <ogr:URL_EXTERN> </ogr:URL_EXTERN>
    <ogr:POI_TYP>27</ogr:POI_TYP>
    <ogr:LAND>Tirol</ogr:LAND>
    <ogr:BILDUNG>0</ogr:BILDUNG>
    <ogr:JARPRO15>1</ogr:JARPRO15>
  </extensions>
</wpt>
<wpt lat="46.990592680480702" lon="12.543519299102469">
  <name>Bergbahnen Goldried Matrei</name>
  <extensions>
    <ogr:OBJECTID>65</ogr:OBJECTID>
    <ogr:SEEHOEHE>9999</ogr:SEEHOEHE>
    <ogr:URL_INTERN> </ogr:URL_INTERN>
    <ogr:URL_EXTERN> </ogr:URL_EXTERN>
    <ogr:POI_TYP>24</ogr:POI_TYP>
    <ogr:LAND>Tirol</ogr:LAND>
    <ogr:BILDUNG>0</ogr:BILDUNG>
    <ogr:JARPRO15>0</ogr:JARPRO15>
  </extensions>
</wpt>
<wpt lat="47.009638656433225" lon="12.298896724397215">
  <name>Umbalfälle</name>
  <extensions>
    <ogr:OBJECTID>66</ogr:OBJECTID>
    <ogr:SEEHOEHE>1600</ogr:SEEHOEHE>
    <ogr:URL_INTERN> </ogr:URL_INTERN>
    <ogr:URL_EXTERN> </ogr:URL_EXTERN>
    <ogr:POI_TYP>13</ogr:POI_TYP>
    <ogr:LAND>Tirol</ogr:LAND>
    <ogr:BILDUNG>0</ogr:BILDUNG>
    <ogr:JARPRO15>1</ogr:JARPRO15>
  </extensions>
</wpt>
<wpt lat="47.001304709674223" lon="12.599731864991581">
  <name>Kals-Matreier Törl</name>
  <extensions>
    <ogr:OBJECTID>67</ogr:OBJECTID>
    <ogr:URL_INTERN> </ogr:URL_INTERN>
    <ogr:URL_EXTERN> </ogr:URL_EXTERN>
    <ogr:POI_TYP>27</ogr:POI_TYP>
    <ogr:LAND>Tirol</ogr:LAND>
    <ogr:BILDUNG>0</ogr:BILDUNG>
    <ogr:JARPRO15>1</ogr:JARPRO15>
  </extensions>
</wpt>
<wpt lat="46.990956304271144" lon="12.5422491815531">
  <name>Parkplatz GG-Resort</name>
  <extensions>
    <ogr:OBJECTID>68</ogr:OBJECTID>
    <ogr:URL_INTERN> </ogr:URL_INTERN>
    <ogr:URL_EXTERN> </ogr:URL_EXTERN>
    <ogr:POI_TYP>21</ogr:POI_TYP>
    <ogr:LAND>Tirol</ogr:LAND>
    <ogr:BILDUNG>0</ogr:BILDUNG>
    <ogr:JARPRO15>0</ogr:JARPRO15>
  </extensions>
</wpt>
<wpt lat="46.989488128859328" lon="12.578808364654508">
  <name>Bergrestaurant Goldried</name>
  <extensions>
    <ogr:OBJECTID>69</ogr:OBJECTID>
    <ogr:SEEHOEHE>2146</ogr:SEEHOEHE>
    <ogr:URL_INTERN> </ogr:URL_INTERN>
    <ogr:URL_EXTERN> </ogr:URL_EXTERN>
    <ogr:POI_TYP>27</ogr:POI_TYP>
    <ogr:LAND>Tirol</ogr:LAND>
    <ogr:BILDUNG>0</ogr:BILDUNG>
    <ogr:JARPRO15>1</ogr:JARPRO15>
  </extensions>
</wpt>
<wpt lat="46.995806009843484" lon="12.565645352993936">
  <name>Kuenzeralm</name>
  <extensions>
    <ogr:OBJECTID>70</ogr:OBJECTID>
    <ogr:SEEHOEHE>1769</ogr:SEEHOEHE>
    <ogr:URL_INTERN> </ogr:URL_INTERN>
    <ogr:URL_EXTERN> </ogr:URL_EXTERN>
    <ogr:POI_TYP>27</ogr:POI_TYP>
    <ogr:LAND>Tirol</ogr:LAND>
    <ogr:BILDUNG>0</ogr:BILDUNG>
    <ogr:JARPRO15>1</ogr:JARPRO15>
  </extensions>
</wpt>
<wpt lat="46.993102285540971" lon="12.59576067738071">
  <name>Adlerlounge</name>
  <extensions>
    <ogr:OBJECTID>71</ogr:OBJECTID>
    <ogr:SEEHOEHE>2405</ogr:SEEHOEHE>
    <ogr:URL_INTERN> </ogr:URL_INTERN>
    <ogr:URL_EXTERN> </ogr:URL_EXTERN>
    <ogr:POI_TYP>26</ogr:POI_TYP>
    <ogr:LAND>Tirol</ogr:LAND>
    <ogr:BILDUNG>0</ogr:BILDUNG>
    <ogr:JARPRO15>1</ogr:JARPRO15>
  </extensions>
</wpt>
<wpt lat="46.922280036007024" lon="13.240513327064802">
  <name>Niederfalkenstein</name>
  <extensions>
    <ogr:OBJECTID>72</ogr:OBJECTID>
    <ogr:URL_INTERN> </ogr:URL_INTERN>
    <ogr:URL_EXTERN> </ogr:URL_EXTERN>
    <ogr:POI_TYP>30</ogr:POI_TYP>
    <ogr:LAND>Kärnten</ogr:LAND>
    <ogr:BILDUNG>0</ogr:BILDUNG>
  </extensions>
</wpt>
<wpt lat="46.92633651229648" lon="13.241673375018486">
  <name>Oberfalkenstein</name>
  <extensions>
    <ogr:OBJECTID>73</ogr:OBJECTID>
    <ogr:URL_INTERN> </ogr:URL_INTERN>
    <ogr:URL_EXTERN> </ogr:URL_EXTERN>
    <ogr:POI_TYP>30</ogr:POI_TYP>
    <ogr:LAND>Kärnten</ogr:LAND>
    <ogr:BILDUNG>0</ogr:BILDUNG>
  </extensions>
</wpt>
<wpt lat="47.001089917828324" lon="13.133547330673215">
  <name>Stockerhütte</name>
  <extensions>
    <ogr:OBJECTID>74</ogr:OBJECTID>
    <ogr:URL_INTERN> </ogr:URL_INTERN>
    <ogr:URL_EXTERN> </ogr:URL_EXTERN>
    <ogr:POI_TYP>27</ogr:POI_TYP>
    <ogr:LAND>Kärnten</ogr:LAND>
    <ogr:BILDUNG>0</ogr:BILDUNG>
  </extensions>
</wpt>
<wpt lat="47.126443587782859" lon="12.46209994479034">
  <name>Felsenkapelle</name>
  <extensions>
    <ogr:OBJECTID>75</ogr:OBJECTID>
    <ogr:URL_INTERN> </ogr:URL_INTERN>
    <ogr:URL_EXTERN> </ogr:URL_EXTERN>
    <ogr:POI_TYP>13</ogr:POI_TYP>
    <ogr:LAND>Tirol</ogr:LAND>
    <ogr:BILDUNG>0</ogr:BILDUNG>
    <ogr:JARPRO15>1</ogr:JARPRO15>
  </extensions>
</wpt>
<wpt lat="47.133193158585662" lon="12.467115964876344">
  <name>Schleierfall</name>
  <extensions>
    <ogr:OBJECTID>76</ogr:OBJECTID>
    <ogr:URL_INTERN> </ogr:URL_INTERN>
    <ogr:URL_EXTERN> </ogr:URL_EXTERN>
    <ogr:POI_TYP>33</ogr:POI_TYP>
    <ogr:LAND>Tirol</ogr:LAND>
    <ogr:BILDUNG>0</ogr:BILDUNG>
    <ogr:JARPRO15>1</ogr:JARPRO15>
  </extensions>
</wpt>
<wpt lat="47.126950793256036" lon="12.474069770948416">
  <name>Hohe Achsel</name>
  <extensions>
    <ogr:OBJECTID>77</ogr:OBJECTID>
    <ogr:URL_INTERN> </ogr:URL_INTERN>
    <ogr:URL_EXTERN> </ogr:URL_EXTERN>
    <ogr:POI_TYP>37</ogr:POI_TYP>
    <ogr:LAND>Tirol</ogr:LAND>
    <ogr:BILDUNG>0</ogr:BILDUNG>
    <ogr:JARPRO15>1</ogr:JARPRO15>
  </extensions>
</wpt>
<wpt lat="46.990533220563869" lon="12.521456940492763">
  <name>Nikolauskirche</name>
  <extensions>
    <ogr:OBJECTID>78</ogr:OBJECTID>
    <ogr:URL_INTERN> </ogr:URL_INTERN>
    <ogr:URL_EXTERN> </ogr:URL_EXTERN>
    <ogr:POI_TYP>13</ogr:POI_TYP>
    <ogr:LAND>Tirol</ogr:LAND>
    <ogr:BILDUNG>0</ogr:BILDUNG>
    <ogr:JARPRO15>1</ogr:JARPRO15>
  </extensions>
</wpt>
<wpt lat="47.007388861609009" lon="12.439915615174341">
  <name>Wallfahrtskirche Maria Schnee</name>
  <extensions>
    <ogr:OBJECTID>79</ogr:OBJECTID>
    <ogr:URL_INTERN> </ogr:URL_INTERN>
    <ogr:URL_EXTERN> </ogr:URL_EXTERN>
    <ogr:POI_TYP>13</ogr:POI_TYP>
    <ogr:LAND>Tirol</ogr:LAND>
    <ogr:BILDUNG>0</ogr:BILDUNG>
    <ogr:JARPRO15>1</ogr:JARPRO15>
  </extensions>
</wpt>
<wpt lat="47.007759024971882" lon="12.299523114895145">
  <name>Großbachfall</name>
  <extensions>
    <ogr:OBJECTID>80</ogr:OBJECTID>
    <ogr:URL_INTERN> </ogr:URL_INTERN>
    <ogr:URL_EXTERN> </ogr:URL_EXTERN>
    <ogr:POI_TYP>33</ogr:POI_TYP>
    <ogr:LAND>Tirol</ogr:LAND>
    <ogr:BILDUNG>0</ogr:BILDUNG>
    <ogr:JARPRO15>1</ogr:JARPRO15>
  </extensions>
</wpt>
<wpt lat="47.004708291131571" lon="12.302991689557091">
  <name>Kleinbachfall</name>
  <extensions>
    <ogr:OBJECTID>81</ogr:OBJECTID>
    <ogr:URL_INTERN> </ogr:URL_INTERN>
    <ogr:URL_EXTERN> </ogr:URL_EXTERN>
    <ogr:POI_TYP>33</ogr:POI_TYP>
    <ogr:LAND>Tirol</ogr:LAND>
    <ogr:BILDUNG>0</ogr:BILDUNG>
    <ogr:JARPRO15>1</ogr:JARPRO15>
  </extensions>
</wpt>
<wpt lat="47.014082071992917" lon="12.28951828074446">
  <name>Schleierfall</name>
  <extensions>
    <ogr:OBJECTID>82</ogr:OBJECTID>
    <ogr:URL_INTERN> </ogr:URL_INTERN>
    <ogr:URL_EXTERN> </ogr:URL_EXTERN>
    <ogr:POI_TYP>33</ogr:POI_TYP>
    <ogr:LAND>Tirol</ogr:LAND>
    <ogr:BILDUNG>0</ogr:BILDUNG>
    <ogr:JARPRO15>1</ogr:JARPRO15>
  </extensions>
</wpt>
<wpt lat="47.037856800416833" lon="12.221026941051903">
  <name>Kleine Philipp Reuter Hütte</name>
  <extensions>
    <ogr:OBJECTID>83</ogr:OBJECTID>
    <ogr:URL_INTERN> </ogr:URL_INTERN>
    <ogr:URL_EXTERN> </ogr:URL_EXTERN>
    <ogr:POI_TYP>28</ogr:POI_TYP>
    <ogr:LAND>Tirol</ogr:LAND>
    <ogr:BILDUNG>0</ogr:BILDUNG>
    <ogr:JARPRO15>1</ogr:JARPRO15>
  </extensions>
</wpt>
<wpt lat="46.978154819911609" lon="12.164119900476681">
  <name>Jausenstation Jagdhausalm</name>
  <extensions>
    <ogr:OBJECTID>84</ogr:OBJECTID>
    <ogr:URL_INTERN> </ogr:URL_INTERN>
    <ogr:URL_EXTERN> </ogr:URL_EXTERN>
    <ogr:POI_TYP>27</ogr:POI_TYP>
    <ogr:LAND>Tirol</ogr:LAND>
    <ogr:BILDUNG>0</ogr:BILDUNG>
    <ogr:JARPRO15>1</ogr:JARPRO15>
  </extensions>
</wpt>
<wpt lat="46.897871586644698" lon="12.218690625245056">
  <name>Jausenstation Lackenstüberl</name>
  <extensions>
    <ogr:OBJECTID>85</ogr:OBJECTID>
    <ogr:URL_INTERN> </ogr:URL_INTERN>
    <ogr:URL_EXTERN> </ogr:URL_EXTERN>
    <ogr:POI_TYP>27</ogr:POI_TYP>
    <ogr:LAND>Tirol</ogr:LAND>
    <ogr:BILDUNG>0</ogr:BILDUNG>
    <ogr:JARPRO15>1</ogr:JARPRO15>
  </extensions>
</wpt>
<wpt lat="46.915460997898293" lon="12.664405824461646">
  <name>Parkplatz Hochschoberhütte</name>
  <extensions>
    <ogr:OBJECTID>86</ogr:OBJECTID>
    <ogr:URL_INTERN> </ogr:URL_INTERN>
    <ogr:URL_EXTERN> </ogr:URL_EXTERN>
    <ogr:POI_TYP>21</ogr:POI_TYP>
    <ogr:LAND>Tirol</ogr:LAND>
    <ogr:BILDUNG>0</ogr:BILDUNG>
    <ogr:JARPRO15>1</ogr:JARPRO15>
  </extensions>
</wpt>
<wpt lat="46.859502123820974" lon="12.762838818696407">
  <name>Mountainbikeroute Zettersfeldrunde</name>
  <extensions>
    <ogr:OBJECTID>87</ogr:OBJECTID>
    <ogr:URL_INTERN> </ogr:URL_INTERN>
    <ogr:URL_EXTERN> </ogr:URL_EXTERN>
    <ogr:POI_TYP>32</ogr:POI_TYP>
    <ogr:LAND>Tirol</ogr:LAND>
    <ogr:BILDUNG>0</ogr:BILDUNG>
    <ogr:JARPRO15>1</ogr:JARPRO15>
  </extensions>
</wpt>
<wpt lat="46.959083011592021" lon="12.746234732297442">
  <name>Gössnitz-Biwak</name>
  <extensions>
    <ogr:OBJECTID>88</ogr:OBJECTID>
    <ogr:URL_INTERN> </ogr:URL_INTERN>
    <ogr:URL_EXTERN> </ogr:URL_EXTERN>
    <ogr:POI_TYP>28</ogr:POI_TYP>
    <ogr:LAND>Tirol</ogr:LAND>
    <ogr:BILDUNG>0</ogr:BILDUNG>
    <ogr:JARPRO15>1</ogr:JARPRO15>
  </extensions>
</wpt>
<wpt lat="47.036424776547385" lon="12.626107064143103">
  <name>Aussichtspunkt Gerhard Liebl</name>
  <extensions>
    <ogr:OBJECTID>89</ogr:OBJECTID>
    <ogr:URL_INTERN> </ogr:URL_INTERN>
    <ogr:URL_EXTERN> </ogr:URL_EXTERN>
    <ogr:POI_TYP>37</ogr:POI_TYP>
    <ogr:LAND>Tirol</ogr:LAND>
    <ogr:BILDUNG>0</ogr:BILDUNG>
    <ogr:JARPRO15>1</ogr:JARPRO15>
  </extensions>
</wpt>
<wpt lat="47.07342539262055" lon="12.62077525503622">
  <name>Aussichtskanzel Stotzbachfall</name>
  <extensions>
    <ogr:OBJECTID>90</ogr:OBJECTID>
    <ogr:URL_INTERN> </ogr:URL_INTERN>
    <ogr:URL_EXTERN> </ogr:URL_EXTERN>
    <ogr:POI_TYP>37</ogr:POI_TYP>
    <ogr:LAND>Tirol</ogr:LAND>
    <ogr:BILDUNG>0</ogr:BILDUNG>
    <ogr:JARPRO15>1</ogr:JARPRO15>
  </extensions>
</wpt>
<wpt lat="47.013782998068997" lon="13.186553895863868">
  <name>Ankogelbahnen</name>
  <extensions>
    <ogr:OBJECTID>91</ogr:OBJECTID>
    <ogr:SEEHOEHE>1270</ogr:SEEHOEHE>
    <ogr:URL_INTERN> </ogr:URL_INTERN>
    <ogr:URL_EXTERN> </ogr:URL_EXTERN>
    <ogr:POI_TYP>24</ogr:POI_TYP>
    <ogr:LAND>Kärnten</ogr:LAND>
    <ogr:BILDUNG>0</ogr:BILDUNG>
  </extensions>
</wpt>
<wpt lat="47.02378605763149" lon="13.232028826270824">
  <name>Schwußnerhütte</name>
  <extensions>
    <ogr:OBJECTID>92</ogr:OBJECTID>
    <ogr:SEEHOEHE>1338</ogr:SEEHOEHE>
    <ogr:URL_INTERN> </ogr:URL_INTERN>
    <ogr:URL_EXTERN> </ogr:URL_EXTERN>
    <ogr:POI_TYP>27</ogr:POI_TYP>
    <ogr:LAND>Kärnten</ogr:LAND>
    <ogr:BILDUNG>0</ogr:BILDUNG>
  </extensions>
</wpt>
<wpt lat="47.078603539093258" lon="13.345330452790106">
  <name>Berghotel Maltatal</name>
  <extensions>
    <ogr:OBJECTID>93</ogr:OBJECTID>
    <ogr:SEEHOEHE>1933</ogr:SEEHOEHE>
    <ogr:URL_INTERN> </ogr:URL_INTERN>
    <ogr:URL_EXTERN> </ogr:URL_EXTERN>
    <ogr:POI_TYP>20</ogr:POI_TYP>
    <ogr:LAND>Kärnten</ogr:LAND>
    <ogr:BILDUNG>0</ogr:BILDUNG>
  </extensions>
</wpt>
<wpt lat="47.04963359632432" lon="13.290834710977435">
  <name>Osnabrücker Hütte</name>
  <extensions>
    <ogr:OBJECTID>94</ogr:OBJECTID>
    <ogr:SEEHOEHE>2026</ogr:SEEHOEHE>
    <ogr:URL_INTERN>http://www.alpenvereinshuetten.at</ogr:URL_INTERN>
    <ogr:URL_EXTERN> </ogr:URL_EXTERN>
    <ogr:POI_TYP>26</ogr:POI_TYP>
    <ogr:LAND>Kärnten</ogr:LAND>
    <ogr:BILDUNG>0</ogr:BILDUNG>
  </extensions>
</wpt>
<wpt lat="47.023779060681989" lon="13.155169674690026">
  <name>Mindener Hütte</name>
  <extensions>
    <ogr:OBJECTID>95</ogr:OBJECTID>
    <ogr:SEEHOEHE>2431</ogr:SEEHOEHE>
    <ogr:URL_INTERN>http://www.alpenvereinshuetten.at</ogr:URL_INTERN>
    <ogr:URL_EXTERN> </ogr:URL_EXTERN>
    <ogr:POI_TYP>28</ogr:POI_TYP>
    <ogr:LAND>Kärnten</ogr:LAND>
    <ogr:BILDUNG>0</ogr:BILDUNG>
  </extensions>
</wpt>
<wpt lat="47.019343339417851" lon="13.269118494753771">
  <name>Celler Hütte</name>
  <extensions>
    <ogr:OBJECTID>96</ogr:OBJECTID>
    <ogr:SEEHOEHE>2238</ogr:SEEHOEHE>
    <ogr:URL_INTERN>http://www.alpenvereinshuetten.at</ogr:URL_INTERN>
    <ogr:URL_EXTERN> </ogr:URL_EXTERN>
    <ogr:POI_TYP>28</ogr:POI_TYP>
    <ogr:LAND>Kärnten</ogr:LAND>
    <ogr:BILDUNG>0</ogr:BILDUNG>
  </extensions>
</wpt>
<wpt lat="46.992647987418124" lon="13.329034932800079">
  <name>Gießener Hütte</name>
  <extensions>
    <ogr:OBJECTID>97</ogr:OBJECTID>
    <ogr:SEEHOEHE>2202</ogr:SEEHOEHE>
    <ogr:URL_INTERN>http://www.alpenvereinshuetten.at</ogr:URL_INTERN>
    <ogr:URL_EXTERN> </ogr:URL_EXTERN>
    <ogr:POI_TYP>26</ogr:POI_TYP>
    <ogr:LAND>Kärnten</ogr:LAND>
    <ogr:BILDUNG>0</ogr:BILDUNG>
  </extensions>
</wpt>
<wpt lat="46.981614477782287" lon="13.333863432572221">
  <name>Parkplatz Gößkarspeicher</name>
  <extensions>
    <ogr:OBJECTID>98</ogr:OBJECTID>
    <ogr:SEEHOEHE>1707</ogr:SEEHOEHE>
    <ogr:URL_INTERN> </ogr:URL_INTERN>
    <ogr:URL_EXTERN> </ogr:URL_EXTERN>
    <ogr:POI_TYP>21</ogr:POI_TYP>
    <ogr:LAND>Kärnten</ogr:LAND>
    <ogr:BILDUNG>0</ogr:BILDUNG>
  </extensions>
</wpt>
<wpt lat="46.952580269715398" lon="13.505740863309892">
  <name>NP Infostelle Malta</name>
  <extensions>
    <ogr:OBJECTID>99</ogr:OBJECTID>
    <ogr:SEEHOEHE>820</ogr:SEEHOEHE>
    <ogr:URL_INTERN>http://www.hohetauern.at/index.php?option=com_content&amp;task=view&amp;id=280&amp;Itemid=173&amp;lang=de</ogr:URL_INTERN>
    <ogr:URL_EXTERN> </ogr:URL_EXTERN>
    <ogr:POI_TYP>11</ogr:POI_TYP>
    <ogr:LAND>Kärnten</ogr:LAND>
    <ogr:BILDUNG>0</ogr:BILDUNG>
  </extensions>
</wpt>
<wpt lat="46.990744598144175" lon="13.165042668613292">
  <name>BIOS NP-Zentrum Mallnitz</name>
  <extensions>
    <ogr:OBJECTID>100</ogr:OBJECTID>
    <ogr:SEEHOEHE>1191</ogr:SEEHOEHE>
    <ogr:URL_INTERN>http://www.hohetauern.at/index.php?option=com_content&amp;task=view&amp;id=283&amp;Itemid=199&amp;lang=de</ogr:URL_INTERN>
    <ogr:URL_EXTERN> </ogr:URL_EXTERN>
    <ogr:POI_TYP>10</ogr:POI_TYP>
    <ogr:LAND>Kärnten</ogr:LAND>
    <ogr:BILDUNG>1</ogr:BILDUNG>
  </extensions>
</wpt>
<wpt lat="46.972596535777257" lon="12.894486139191535">
  <name>NP-Verwaltung Großkirchheim</name>
  <extensions>
    <ogr:OBJECTID>101</ogr:OBJECTID>
    <ogr:SEEHOEHE>1000</ogr:SEEHOEHE>
    <ogr:URL_INTERN> </ogr:URL_INTERN>
    <ogr:URL_EXTERN> </ogr:URL_EXTERN>
    <ogr:POI_TYP>10</ogr:POI_TYP>
    <ogr:LAND>Kärnten</ogr:LAND>
    <ogr:BILDUNG>1</ogr:BILDUNG>
  </extensions>
</wpt>
<wpt lat="47.069571891340743" lon="12.768215200324454">
  <name>NP Information Glocknerhaus</name>
  <extensions>
    <ogr:OBJECTID>102</ogr:OBJECTID>
    <ogr:SEEHOEHE>2170</ogr:SEEHOEHE>
    <ogr:URL_INTERN> </ogr:URL_INTERN>
    <ogr:URL_EXTERN> </ogr:URL_EXTERN>
    <ogr:POI_TYP>11</ogr:POI_TYP>
    <ogr:LAND>Kärnten</ogr:LAND>
    <ogr:BILDUNG>0</ogr:BILDUNG>
  </extensions>
</wpt>
<wpt lat="46.868871301514673" lon="12.880478005225187">
  <name>Besucherinformationssystem HS Winklern</name>
  <extensions>
    <ogr:OBJECTID>103</ogr:OBJECTID>
    <ogr:SEEHOEHE>920</ogr:SEEHOEHE>
    <ogr:URL_INTERN> </ogr:URL_INTERN>
    <ogr:URL_EXTERN> </ogr:URL_EXTERN>
    <ogr:POI_TYP>11</ogr:POI_TYP>
    <ogr:LAND>Kärnten</ogr:LAND>
    <ogr:BILDUNG>0</ogr:BILDUNG>
  </extensions>
</wpt>
<wpt lat="47.040774603029838" lon="12.841336510247706">
  <name>Bergbahnen Heiligenblut</name>
  <extensions>
    <ogr:OBJECTID>104</ogr:OBJECTID>
    <ogr:SEEHOEHE>1291</ogr:SEEHOEHE>
    <ogr:URL_INTERN> </ogr:URL_INTERN>
    <ogr:URL_EXTERN> </ogr:URL_EXTERN>
    <ogr:POI_TYP>24</ogr:POI_TYP>
    <ogr:LAND>Kärnten</ogr:LAND>
    <ogr:BILDUNG>0</ogr:BILDUNG>
  </extensions>
</wpt>
<wpt lat="47.006880875360189" lon="13.070256922274741">
  <name>Weissgerber Biwak</name>
  <extensions>
    <ogr:OBJECTID>105</ogr:OBJECTID>
    <ogr:SEEHOEHE>2714</ogr:SEEHOEHE>
    <ogr:URL_INTERN> </ogr:URL_INTERN>
    <ogr:URL_EXTERN> </ogr:URL_EXTERN>
    <ogr:POI_TYP>28</ogr:POI_TYP>
    <ogr:LAND>Kärnten</ogr:LAND>
    <ogr:BILDUNG>0</ogr:BILDUNG>
  </extensions>
</wpt>
<wpt lat="46.98057720137755" lon="13.155387304250981">
  <name>Häusleralm</name>
  <extensions>
    <ogr:OBJECTID>106</ogr:OBJECTID>
    <ogr:SEEHOEHE>1668</ogr:SEEHOEHE>
    <ogr:URL_INTERN> </ogr:URL_INTERN>
    <ogr:URL_EXTERN> </ogr:URL_EXTERN>
    <ogr:POI_TYP>27</ogr:POI_TYP>
    <ogr:LAND>Kärnten</ogr:LAND>
    <ogr:BILDUNG>0</ogr:BILDUNG>
  </extensions>
</wpt>
<wpt lat="46.980694083205613" lon="13.195867587048744">
  <name>Wolligerhütte</name>
  <extensions>
    <ogr:OBJECTID>107</ogr:OBJECTID>
    <ogr:SEEHOEHE>1576</ogr:SEEHOEHE>
    <ogr:URL_INTERN> </ogr:URL_INTERN>
    <ogr:URL_EXTERN> </ogr:URL_EXTERN>
    <ogr:POI_TYP>27</ogr:POI_TYP>
    <ogr:LAND>Kärnten</ogr:LAND>
    <ogr:BILDUNG>0</ogr:BILDUNG>
  </extensions>
</wpt>
<wpt lat="46.975582341820058" lon="13.296931497861227">
  <name>Kaponig Biwak</name>
  <extensions>
    <ogr:OBJECTID>108</ogr:OBJECTID>
    <ogr:SEEHOEHE>2460</ogr:SEEHOEHE>
    <ogr:URL_INTERN>http://www.alpenvereinshuetten.at</ogr:URL_INTERN>
    <ogr:URL_EXTERN> </ogr:URL_EXTERN>
    <ogr:POI_TYP>28</ogr:POI_TYP>
    <ogr:LAND>Kärnten</ogr:LAND>
    <ogr:BILDUNG>0</ogr:BILDUNG>
  </extensions>
</wpt>
<wpt lat="47.001778880227086" lon="13.110737089626937">
  <name>Parkplatz Jamnig Alm</name>
  <extensions>
    <ogr:OBJECTID>109</ogr:OBJECTID>
    <ogr:SEEHOEHE>1540</ogr:SEEHOEHE>
    <ogr:URL_INTERN> </ogr:URL_INTERN>
    <ogr:URL_EXTERN> </ogr:URL_EXTERN>
    <ogr:POI_TYP>21</ogr:POI_TYP>
    <ogr:LAND>Kärnten</ogr:LAND>
    <ogr:BILDUNG>0</ogr:BILDUNG>
  </extensions>
</wpt>
<wpt lat="47.088008939504874" lon="13.328042275112814">
  <name>Jägersteighütte</name>
  <extensions>
    <ogr:OBJECTID>110</ogr:OBJECTID>
    <ogr:SEEHOEHE>1981</ogr:SEEHOEHE>
    <ogr:URL_INTERN> </ogr:URL_INTERN>
    <ogr:URL_EXTERN> </ogr:URL_EXTERN>
    <ogr:POI_TYP>27</ogr:POI_TYP>
    <ogr:LAND>Kärnten</ogr:LAND>
    <ogr:BILDUNG>0</ogr:BILDUNG>
  </extensions>
</wpt>
<wpt lat="47.045339470550687" lon="12.904667257331635">
  <name>Wirtshaus Alter Pocher</name>
  <extensions>
    <ogr:OBJECTID>111</ogr:OBJECTID>
    <ogr:SEEHOEHE>1809</ogr:SEEHOEHE>
    <ogr:URL_INTERN> </ogr:URL_INTERN>
    <ogr:URL_EXTERN> </ogr:URL_EXTERN>
    <ogr:POI_TYP>20</ogr:POI_TYP>
    <ogr:LAND>Kärnten</ogr:LAND>
    <ogr:BILDUNG>0</ogr:BILDUNG>
  </extensions>
</wpt>
<wpt lat="47.062292097214453" lon="12.856107777585633">
  <name>Wirtshaus Schareck</name>
  <extensions>
    <ogr:OBJECTID>112</ogr:OBJECTID>
    <ogr:SEEHOEHE>2552</ogr:SEEHOEHE>
    <ogr:URL_INTERN> </ogr:URL_INTERN>
    <ogr:URL_EXTERN> </ogr:URL_EXTERN>
    <ogr:POI_TYP>20</ogr:POI_TYP>
    <ogr:LAND>Kärnten</ogr:LAND>
    <ogr:BILDUNG>0</ogr:BILDUNG>
  </extensions>
</wpt>
<wpt lat="47.069284679657308" lon="13.244977570588851">
  <name>Ali - lanti Biwak</name>
  <extensions>
    <ogr:OBJECTID>113</ogr:OBJECTID>
    <ogr:SEEHOEHE>2848</ogr:SEEHOEHE>
    <ogr:URL_INTERN> </ogr:URL_INTERN>
    <ogr:URL_EXTERN> </ogr:URL_EXTERN>
    <ogr:POI_TYP>28</ogr:POI_TYP>
    <ogr:LAND>Kärnten</ogr:LAND>
    <ogr:BILDUNG>0</ogr:BILDUNG>
  </extensions>
</wpt>
<wpt lat="47.014309660045249" lon="13.188342583509035">
  <name>Kulturweg Römerstraßen (Korntauern)</name>
  <extensions>
    <ogr:OBJECTID>114</ogr:OBJECTID>
    <ogr:SEEHOEHE>1250</ogr:SEEHOEHE>
    <ogr:URL_INTERN>http://www.hohetauern.at/index.php?option=com_content&amp;task=view&amp;id=388&amp;Itemid=186&amp;lang=de</ogr:URL_INTERN>
    <ogr:URL_EXTERN> </ogr:URL_EXTERN>
    <ogr:POI_TYP>12</ogr:POI_TYP>
    <ogr:LAND>Kärnten</ogr:LAND>
    <ogr:BILDUNG>0</ogr:BILDUNG>
  </extensions>
</wpt>
<wpt lat="47.002146386051656" lon="13.110862891163162">
  <name>Kulturweg Römerstraßen (Mallnitzer Tauern)</name>
  <extensions>
    <ogr:OBJECTID>115</ogr:OBJECTID>
    <ogr:SEEHOEHE>1700</ogr:SEEHOEHE>
    <ogr:URL_INTERN>http://www.hohetauern.at/index.php?option=com_content&amp;task=view&amp;id=206&amp;Itemid=187&amp;lang=de</ogr:URL_INTERN>
    <ogr:URL_EXTERN> </ogr:URL_EXTERN>
    <ogr:POI_TYP>12</ogr:POI_TYP>
    <ogr:LAND>Kärnten</ogr:LAND>
    <ogr:BILDUNG>0</ogr:BILDUNG>
  </extensions>
</wpt>
<wpt lat="47.001255825088926" lon="13.107421863226888">
  <name>Gasthof Jamnighütte</name>
  <extensions>
    <ogr:OBJECTID>116</ogr:OBJECTID>
    <ogr:SEEHOEHE>1748</ogr:SEEHOEHE>
    <ogr:URL_INTERN> </ogr:URL_INTERN>
    <ogr:URL_EXTERN> </ogr:URL_EXTERN>
    <ogr:POI_TYP>20</ogr:POI_TYP>
    <ogr:LAND>Kärnten</ogr:LAND>
    <ogr:BILDUNG>0</ogr:BILDUNG>
  </extensions>
</wpt>
<wpt lat="47.027997298599843" lon="13.195175375225629">
  <name>Hochalmblick</name>
  <extensions>
    <ogr:OBJECTID>117</ogr:OBJECTID>
    <ogr:SEEHOEHE>1930</ogr:SEEHOEHE>
    <ogr:URL_INTERN> </ogr:URL_INTERN>
    <ogr:URL_EXTERN> </ogr:URL_EXTERN>
    <ogr:POI_TYP>20</ogr:POI_TYP>
    <ogr:LAND>Kärnten</ogr:LAND>
    <ogr:BILDUNG>0</ogr:BILDUNG>
  </extensions>
</wpt>
<wpt lat="47.080960015440141" lon="12.842208397634632">
  <name>Geo-Trail Tauernfenster</name>
  <extensions>
    <ogr:OBJECTID>118</ogr:OBJECTID>
    <ogr:SEEHOEHE>2576</ogr:SEEHOEHE>
    <ogr:URL_INTERN>http://www.hohetauern.at/index.php?option=com_content&amp;task=view&amp;id=384&amp;Itemid=186&amp;lang=de</ogr:URL_INTERN>
    <ogr:URL_EXTERN> </ogr:URL_EXTERN>
    <ogr:POI_TYP>12</ogr:POI_TYP>
    <ogr:LAND>Kärnten</ogr:LAND>
    <ogr:BILDUNG>0</ogr:BILDUNG>
  </extensions>
</wpt>
<wpt lat="47.041114836756151" lon="12.827250173307826">
  <name>Naturlehrweg Gößnitzfall - Kachlmoor Natura Mystica</name>
  <extensions>
    <ogr:OBJECTID>119</ogr:OBJECTID>
    <ogr:SEEHOEHE>1260</ogr:SEEHOEHE>
    <ogr:URL_INTERN>http://www.hohetauern.at/index.php?option=com_content&amp;task=view&amp;id=220&amp;Itemid=186&amp;lang=de</ogr:URL_INTERN>
    <ogr:URL_EXTERN> </ogr:URL_EXTERN>
    <ogr:POI_TYP>12</ogr:POI_TYP>
    <ogr:LAND>Kärnten</ogr:LAND>
    <ogr:BILDUNG>0</ogr:BILDUNG>
  </extensions>
</wpt>
<wpt lat="47.049735679848403" lon="12.809297742596172">
  <name>Heilwasserweg Briccius</name>
  <extensions>
    <ogr:OBJECTID>120</ogr:OBJECTID>
    <ogr:SEEHOEHE>1420</ogr:SEEHOEHE>
    <ogr:URL_INTERN>http://www.hohetauern.at/index.php?option=com_content&amp;task=view&amp;id=385&amp;Itemid=186&amp;lang=de</ogr:URL_INTERN>
    <ogr:URL_EXTERN> </ogr:URL_EXTERN>
    <ogr:POI_TYP>12</ogr:POI_TYP>
    <ogr:LAND>Kärnten</ogr:LAND>
    <ogr:BILDUNG>0</ogr:BILDUNG>
  </extensions>
</wpt>
<wpt lat="47.011172916350802" lon="12.867402267961182">
  <name>Wasser Wunder Weg Jungfernsprung</name>
  <extensions>
    <ogr:OBJECTID>121</ogr:OBJECTID>
    <ogr:SEEHOEHE>1097</ogr:SEEHOEHE>
    <ogr:URL_INTERN>http://www.hohetauern.at/index.php?option=com_content&amp;task=view&amp;id=195&amp;Itemid=186&amp;lang=de</ogr:URL_INTERN>
    <ogr:URL_EXTERN> </ogr:URL_EXTERN>
    <ogr:POI_TYP>12</ogr:POI_TYP>
    <ogr:LAND>Kärnten</ogr:LAND>
    <ogr:BILDUNG>0</ogr:BILDUNG>
  </extensions>
</wpt>
<wpt lat="46.965198944817097" lon="12.893205317812956">
  <name>Gartlfall - Nach innen horchen</name>
  <extensions>
    <ogr:OBJECTID>122</ogr:OBJECTID>
    <ogr:SEEHOEHE>1000</ogr:SEEHOEHE>
    <ogr:URL_INTERN> </ogr:URL_INTERN>
    <ogr:URL_EXTERN> </ogr:URL_EXTERN>
    <ogr:POI_TYP>12</ogr:POI_TYP>
    <ogr:LAND>Kärnten</ogr:LAND>
    <ogr:BILDUNG>0</ogr:BILDUNG>
  </extensions>
</wpt>
<wpt lat="46.970251950317355" lon="12.815793455185402">
  <name>Naturlehrweg Gradental</name>
  <extensions>
    <ogr:OBJECTID>123</ogr:OBJECTID>
    <ogr:SEEHOEHE>1700</ogr:SEEHOEHE>
    <ogr:URL_INTERN> </ogr:URL_INTERN>
    <ogr:URL_EXTERN> </ogr:URL_EXTERN>
    <ogr:POI_TYP>12</ogr:POI_TYP>
    <ogr:LAND>Kärnten</ogr:LAND>
    <ogr:BILDUNG>0</ogr:BILDUNG>
  </extensions>
</wpt>
<wpt lat="46.87808285449325" lon="12.843435340562598">
  <name>Panorama Winklerner Alm</name>
  <extensions>
    <ogr:OBJECTID>124</ogr:OBJECTID>
    <ogr:SEEHOEHE>1907</ogr:SEEHOEHE>
    <ogr:URL_INTERN>http://www.hohetauern.at/index.php?option=com_content&amp;task=view&amp;id=219&amp;Itemid=186&amp;lang=de</ogr:URL_INTERN>
    <ogr:URL_EXTERN> </ogr:URL_EXTERN>
    <ogr:POI_TYP>12</ogr:POI_TYP>
    <ogr:LAND>Kärnten</ogr:LAND>
    <ogr:BILDUNG>0</ogr:BILDUNG>
  </extensions>
</wpt>
<wpt lat="46.917252582328501" lon="12.876799912249739">
  <name>Familienwanderweg Winklerner Alm</name>
  <extensions>
    <ogr:OBJECTID>125</ogr:OBJECTID>
    <ogr:SEEHOEHE>1900</ogr:SEEHOEHE>
    <ogr:URL_INTERN>http://www.hohetauern.at/index.php?option=com_content&amp;task=view&amp;id=219&amp;Itemid=186&amp;lang=de</ogr:URL_INTERN>
    <ogr:URL_EXTERN> </ogr:URL_EXTERN>
    <ogr:POI_TYP>12</ogr:POI_TYP>
    <ogr:LAND>Kärnten</ogr:LAND>
    <ogr:BILDUNG>0</ogr:BILDUNG>
  </extensions>
</wpt>
<wpt lat="46.955300191236304" lon="12.961466601456655">
  <name>Naturlehrweg Astner Moos</name>
  <extensions>
    <ogr:OBJECTID>126</ogr:OBJECTID>
    <ogr:SEEHOEHE>1876</ogr:SEEHOEHE>
    <ogr:URL_INTERN>http://www.hohetauern.at/index.php?option=com_content&amp;task=view&amp;id=387&amp;Itemid=186&amp;lang=de</ogr:URL_INTERN>
    <ogr:URL_EXTERN> </ogr:URL_EXTERN>
    <ogr:POI_TYP>12</ogr:POI_TYP>
    <ogr:LAND>Kärnten</ogr:LAND>
    <ogr:BILDUNG>0</ogr:BILDUNG>
  </extensions>
</wpt>
<wpt lat="46.955239271054417" lon="12.961032540301504">
  <name>Sadnighaus</name>
  <extensions>
    <ogr:OBJECTID>127</ogr:OBJECTID>
    <ogr:SEEHOEHE>1876</ogr:SEEHOEHE>
    <ogr:URL_INTERN>http://www.alpenvereinshuetten.at</ogr:URL_INTERN>
    <ogr:URL_EXTERN> </ogr:URL_EXTERN>
    <ogr:POI_TYP>26</ogr:POI_TYP>
    <ogr:LAND>Kärnten</ogr:LAND>
    <ogr:BILDUNG>0</ogr:BILDUNG>
  </extensions>
</wpt>
<wpt lat="46.955775040534668" lon="12.961115694019176">
  <name>Panoramweg Albitzen - Moharkreuz</name>
  <extensions>
    <ogr:OBJECTID>128</ogr:OBJECTID>
    <ogr:SEEHOEHE>1876</ogr:SEEHOEHE>
    <ogr:URL_INTERN> </ogr:URL_INTERN>
    <ogr:URL_EXTERN> </ogr:URL_EXTERN>
    <ogr:POI_TYP>12</ogr:POI_TYP>
    <ogr:LAND>Kärnten</ogr:LAND>
    <ogr:BILDUNG>0</ogr:BILDUNG>
  </extensions>
</wpt>
<wpt lat="47.019034124828373" lon="13.195276575035958">
  <name>Naturlehrweg Seebachtal - Stappitzer  See</name>
  <extensions>
    <ogr:OBJECTID>129</ogr:OBJECTID>
    <ogr:SEEHOEHE>1270</ogr:SEEHOEHE>
    <ogr:URL_INTERN>http://www.hohetauern.at/index.php?option=com_content&amp;task=view&amp;id=222&amp;Itemid=186&amp;lang=de</ogr:URL_INTERN>
    <ogr:URL_EXTERN> </ogr:URL_EXTERN>
    <ogr:POI_TYP>12</ogr:POI_TYP>
    <ogr:LAND>Kärnten</ogr:LAND>
    <ogr:BILDUNG>0</ogr:BILDUNG>
  </extensions>
</wpt>
<wpt lat="47.014788442597123" lon="13.1860393465874">
  <name>Parkplatz Ankogelbahn - Seebachtal</name>
  <extensions>
    <ogr:OBJECTID>130</ogr:OBJECTID>
    <ogr:SEEHOEHE>1270</ogr:SEEHOEHE>
    <ogr:URL_INTERN> </ogr:URL_INTERN>
    <ogr:URL_EXTERN> </ogr:URL_EXTERN>
    <ogr:POI_TYP>21</ogr:POI_TYP>
    <ogr:LAND>Kärnten</ogr:LAND>
    <ogr:BILDUNG>0</ogr:BILDUNG>
  </extensions>
</wpt>
<wpt lat="46.980365817121061" lon="13.20946379053925">
  <name>Blockgletscherweg Dösental</name>
  <extensions>
    <ogr:OBJECTID>131</ogr:OBJECTID>
    <ogr:SEEHOEHE>1450</ogr:SEEHOEHE>
    <ogr:URL_INTERN>http://www.hohetauern.at/index.php?option=com_content&amp;task=view&amp;id=386&amp;Itemid=186&amp;lang=de</ogr:URL_INTERN>
    <ogr:URL_EXTERN> </ogr:URL_EXTERN>
    <ogr:POI_TYP>12</ogr:POI_TYP>
    <ogr:LAND>Kärnten</ogr:LAND>
    <ogr:BILDUNG>0</ogr:BILDUNG>
  </extensions>
</wpt>
<wpt lat="46.989215804545111" lon="13.267246336503215">
  <name>Arthur von Schmid Haus</name>
  <extensions>
    <ogr:OBJECTID>132</ogr:OBJECTID>
    <ogr:SEEHOEHE>2275</ogr:SEEHOEHE>
    <ogr:URL_INTERN>http://www.alpenvereinshuetten.at</ogr:URL_INTERN>
    <ogr:URL_EXTERN> </ogr:URL_EXTERN>
    <ogr:POI_TYP>26</ogr:POI_TYP>
    <ogr:LAND>Kärnten</ogr:LAND>
    <ogr:BILDUNG>0</ogr:BILDUNG>
  </extensions>
</wpt>
<wpt lat="47.009591739053469" lon="13.435939229437276">
  <name>Wasserthemenweg Malteiner Wasserspiele</name>
  <extensions>
    <ogr:OBJECTID>133</ogr:OBJECTID>
    <ogr:SEEHOEHE>911</ogr:SEEHOEHE>
    <ogr:URL_INTERN>http://www.hohetauern.at/index.php?option=com_content&amp;task=view&amp;id=221&amp;Itemid=186&amp;lang=de</ogr:URL_INTERN>
    <ogr:URL_EXTERN> </ogr:URL_EXTERN>
    <ogr:POI_TYP>12</ogr:POI_TYP>
    <ogr:LAND>Kärnten</ogr:LAND>
    <ogr:BILDUNG>0</ogr:BILDUNG>
  </extensions>
</wpt>
<wpt lat="47.026181558593272" lon="13.402481592874047">
  <name>Gmünder Hütte</name>
  <extensions>
    <ogr:OBJECTID>134</ogr:OBJECTID>
    <ogr:SEEHOEHE>1166</ogr:SEEHOEHE>
    <ogr:URL_INTERN>http://www.alpenvereinshuetten.at</ogr:URL_INTERN>
    <ogr:URL_EXTERN> </ogr:URL_EXTERN>
    <ogr:POI_TYP>26</ogr:POI_TYP>
    <ogr:LAND>Kärnten</ogr:LAND>
    <ogr:BILDUNG>0</ogr:BILDUNG>
  </extensions>
</wpt>
<wpt lat="47.019570791469313" lon="13.41244748751649">
  <name>Gasthof Hochbrücke</name>
  <extensions>
    <ogr:OBJECTID>135</ogr:OBJECTID>
    <ogr:SEEHOEHE>1133</ogr:SEEHOEHE>
    <ogr:URL_INTERN> </ogr:URL_INTERN>
    <ogr:URL_EXTERN> </ogr:URL_EXTERN>
    <ogr:POI_TYP>20</ogr:POI_TYP>
    <ogr:LAND>Kärnten</ogr:LAND>
    <ogr:BILDUNG>0</ogr:BILDUNG>
  </extensions>
</wpt>
<wpt lat="47.010403846838294" lon="13.435861595316849">
  <name>Malta-Hochalm-Straße</name>
  <extensions>
    <ogr:OBJECTID>136</ogr:OBJECTID>
    <ogr:SEEHOEHE>1133</ogr:SEEHOEHE>
    <ogr:URL_INTERN> </ogr:URL_INTERN>
    <ogr:URL_EXTERN> </ogr:URL_EXTERN>
    <ogr:POI_TYP>23</ogr:POI_TYP>
    <ogr:LAND>Kärnten</ogr:LAND>
    <ogr:BILDUNG>0</ogr:BILDUNG>
  </extensions>
</wpt>
<wpt lat="47.058398136822419" lon="13.391351949642852">
  <name>Kattowitzer Hütte</name>
  <extensions>
    <ogr:OBJECTID>137</ogr:OBJECTID>
    <ogr:SEEHOEHE>2321</ogr:SEEHOEHE>
    <ogr:URL_INTERN>http://www.alpenvereinshuetten.at</ogr:URL_INTERN>
    <ogr:URL_EXTERN> </ogr:URL_EXTERN>
    <ogr:POI_TYP>26</ogr:POI_TYP>
    <ogr:LAND>Kärnten</ogr:LAND>
    <ogr:BILDUNG>0</ogr:BILDUNG>
  </extensions>
</wpt>
<wpt lat="47.053155825241632" lon="13.368138298795754">
  <name>Gasthof Almrauschhütte</name>
  <extensions>
    <ogr:OBJECTID>138</ogr:OBJECTID>
    <ogr:SEEHOEHE>1571</ogr:SEEHOEHE>
    <ogr:URL_INTERN> </ogr:URL_INTERN>
    <ogr:URL_EXTERN> </ogr:URL_EXTERN>
    <ogr:POI_TYP>20</ogr:POI_TYP>
    <ogr:LAND>Kärnten</ogr:LAND>
    <ogr:BILDUNG>0</ogr:BILDUNG>
  </extensions>
</wpt>
<wpt lat="47.084233494223469" lon="13.346599497798524">
  <name>Kölnbreinstüberl</name>
  <extensions>
    <ogr:OBJECTID>139</ogr:OBJECTID>
    <ogr:SEEHOEHE>1930</ogr:SEEHOEHE>
    <ogr:URL_INTERN> </ogr:URL_INTERN>
    <ogr:URL_EXTERN> </ogr:URL_EXTERN>
    <ogr:POI_TYP>20</ogr:POI_TYP>
    <ogr:LAND>Kärnten</ogr:LAND>
    <ogr:BILDUNG>0</ogr:BILDUNG>
  </extensions>
</wpt>
<wpt lat="47.080508431958421" lon="13.307081457600303">
  <name>Naturlehrweg Elendtäler</name>
  <extensions>
    <ogr:OBJECTID>140</ogr:OBJECTID>
    <ogr:SEEHOEHE>1916</ogr:SEEHOEHE>
    <ogr:URL_INTERN> </ogr:URL_INTERN>
    <ogr:URL_EXTERN> </ogr:URL_EXTERN>
    <ogr:POI_TYP>12</ogr:POI_TYP>
    <ogr:LAND>Kärnten</ogr:LAND>
    <ogr:BILDUNG>0</ogr:BILDUNG>
  </extensions>
</wpt>
<wpt lat="47.128509927549636" lon="12.479475919223042">
  <name>Wasserfall</name>
  <extensions>
    <ogr:OBJECTID>141</ogr:OBJECTID>
    <ogr:URL_INTERN> </ogr:URL_INTERN>
    <ogr:URL_EXTERN> </ogr:URL_EXTERN>
    <ogr:POI_TYP>33</ogr:POI_TYP>
    <ogr:LAND>Tirol</ogr:LAND>
    <ogr:BILDUNG>0</ogr:BILDUNG>
    <ogr:JARPRO15>1</ogr:JARPRO15>
  </extensions>
</wpt>
<wpt lat="47.0092095387608" lon="12.466406913380192">
  <name>Ruine  Rabenstein</name>
  <extensions>
    <ogr:OBJECTID>142</ogr:OBJECTID>
    <ogr:URL_INTERN> </ogr:URL_INTERN>
    <ogr:URL_EXTERN> </ogr:URL_EXTERN>
    <ogr:POI_TYP>30</ogr:POI_TYP>
    <ogr:LAND>Tirol</ogr:LAND>
    <ogr:BILDUNG>0</ogr:BILDUNG>
    <ogr:JARPRO15>1</ogr:JARPRO15>
  </extensions>
</wpt>
<wpt lat="47.009813606350932" lon="12.625459455645851">
  <name>Mountainbikeroute Kerer Alm</name>
  <extensions>
    <ogr:OBJECTID>143</ogr:OBJECTID>
    <ogr:URL_INTERN> </ogr:URL_INTERN>
    <ogr:URL_EXTERN> </ogr:URL_EXTERN>
    <ogr:POI_TYP>32</ogr:POI_TYP>
    <ogr:LAND>Tirol</ogr:LAND>
    <ogr:BILDUNG>0</ogr:BILDUNG>
    <ogr:JARPRO15>1</ogr:JARPRO15>
  </extensions>
</wpt>
<wpt lat="47.023915122970173" lon="12.536595529802142">
  <name>Wasserfall</name>
  <extensions>
    <ogr:OBJECTID>144</ogr:OBJECTID>
    <ogr:URL_INTERN> </ogr:URL_INTERN>
    <ogr:URL_EXTERN> </ogr:URL_EXTERN>
    <ogr:POI_TYP>33</ogr:POI_TYP>
    <ogr:LAND>Tirol</ogr:LAND>
    <ogr:BILDUNG>0</ogr:BILDUNG>
    <ogr:JARPRO15>1</ogr:JARPRO15>
  </extensions>
</wpt>
<wpt lat="46.92527743490124" lon="12.492506533128665">
  <name>Maschler</name>
  <extensions>
    <ogr:OBJECTID>145</ogr:OBJECTID>
    <ogr:SEEHOEHE>1470</ogr:SEEHOEHE>
    <ogr:URL_INTERN> </ogr:URL_INTERN>
    <ogr:URL_EXTERN> </ogr:URL_EXTERN>
    <ogr:POI_TYP>27</ogr:POI_TYP>
    <ogr:LAND>Tirol</ogr:LAND>
    <ogr:BILDUNG>0</ogr:BILDUNG>
    <ogr:JARPRO15>1</ogr:JARPRO15>
  </extensions>
</wpt>
<wpt lat="47.02440340612398" lon="12.391507937677487">
  <name>Mountainbikeroute Bodenalm</name>
  <extensions>
    <ogr:OBJECTID>146</ogr:OBJECTID>
    <ogr:URL_INTERN> </ogr:URL_INTERN>
    <ogr:URL_EXTERN> </ogr:URL_EXTERN>
    <ogr:POI_TYP>32</ogr:POI_TYP>
    <ogr:LAND>Tirol</ogr:LAND>
    <ogr:BILDUNG>0</ogr:BILDUNG>
    <ogr:JARPRO15>1</ogr:JARPRO15>
  </extensions>
</wpt>
<wpt lat="47.02234770751496" lon="12.398226394679263">
  <name>Taxizubringer</name>
  <extensions>
    <ogr:OBJECTID>147</ogr:OBJECTID>
    <ogr:URL_INTERN> </ogr:URL_INTERN>
    <ogr:URL_EXTERN> </ogr:URL_EXTERN>
    <ogr:POI_TYP>22</ogr:POI_TYP>
    <ogr:LAND>Tirol</ogr:LAND>
    <ogr:BILDUNG>0</ogr:BILDUNG>
    <ogr:JARPRO15>1</ogr:JARPRO15>
  </extensions>
</wpt>
<wpt lat="47.01876881841487" lon="12.394646573773725">
  <name>Mautstraße Bodenalm</name>
  <extensions>
    <ogr:OBJECTID>148</ogr:OBJECTID>
    <ogr:URL_INTERN> </ogr:URL_INTERN>
    <ogr:URL_EXTERN> </ogr:URL_EXTERN>
    <ogr:POI_TYP>23</ogr:POI_TYP>
    <ogr:LAND>Tirol</ogr:LAND>
    <ogr:BILDUNG>0</ogr:BILDUNG>
    <ogr:JARPRO15>1</ogr:JARPRO15>
  </extensions>
</wpt>
<wpt lat="47.019531445326535" lon="12.361858821248031">
  <name>Parkplatz Bichl</name>
  <extensions>
    <ogr:OBJECTID>149</ogr:OBJECTID>
    <ogr:URL_INTERN> </ogr:URL_INTERN>
    <ogr:URL_EXTERN> </ogr:URL_EXTERN>
    <ogr:POI_TYP>21</ogr:POI_TYP>
    <ogr:LAND>Tirol</ogr:LAND>
    <ogr:BILDUNG>0</ogr:BILDUNG>
    <ogr:JARPRO15>1</ogr:JARPRO15>
  </extensions>
</wpt>
<wpt lat="47.02159896355024" lon="12.353588157411266">
  <name>Parkplatz-Sajathütte</name>
  <extensions>
    <ogr:OBJECTID>150</ogr:OBJECTID>
    <ogr:URL_INTERN> </ogr:URL_INTERN>
    <ogr:URL_EXTERN> </ogr:URL_EXTERN>
    <ogr:POI_TYP>21</ogr:POI_TYP>
    <ogr:LAND>Tirol</ogr:LAND>
    <ogr:BILDUNG>0</ogr:BILDUNG>
    <ogr:JARPRO15>0</ogr:JARPRO15>
  </extensions>
</wpt>
<wpt lat="47.02466327893066" lon="12.341493291638152">
  <name>Mountainbikeroute Katinweg - Stabanthütte</name>
  <extensions>
    <ogr:OBJECTID>151</ogr:OBJECTID>
    <ogr:URL_INTERN> </ogr:URL_INTERN>
    <ogr:URL_EXTERN> </ogr:URL_EXTERN>
    <ogr:POI_TYP>32</ogr:POI_TYP>
    <ogr:LAND>Tirol</ogr:LAND>
    <ogr:BILDUNG>0</ogr:BILDUNG>
    <ogr:JARPRO15>1</ogr:JARPRO15>
  </extensions>
</wpt>
<wpt lat="47.024064263019618" lon="12.332311366381822">
  <name>Parkplatz</name>
  <extensions>
    <ogr:OBJECTID>152</ogr:OBJECTID>
    <ogr:URL_INTERN> </ogr:URL_INTERN>
    <ogr:URL_EXTERN> </ogr:URL_EXTERN>
    <ogr:POI_TYP>21</ogr:POI_TYP>
    <ogr:LAND>Tirol</ogr:LAND>
    <ogr:BILDUNG>0</ogr:BILDUNG>
    <ogr:JARPRO15>0</ogr:JARPRO15>
  </extensions>
</wpt>
<wpt lat="46.953755997242055" lon="12.327852751122359">
  <name>Knappengruben</name>
  <extensions>
    <ogr:OBJECTID>153</ogr:OBJECTID>
    <ogr:SEEHOEHE>2425</ogr:SEEHOEHE>
    <ogr:URL_INTERN> </ogr:URL_INTERN>
    <ogr:URL_EXTERN> </ogr:URL_EXTERN>
    <ogr:POI_TYP>35</ogr:POI_TYP>
    <ogr:LAND>Tirol</ogr:LAND>
    <ogr:BILDUNG>0</ogr:BILDUNG>
    <ogr:JARPRO15>1</ogr:JARPRO15>
  </extensions>
</wpt>
<wpt lat="46.92112726194658" lon="12.352912025184349">
  <name>Tögisch</name>
  <extensions>
    <ogr:OBJECTID>154</ogr:OBJECTID>
    <ogr:SEEHOEHE>1653</ogr:SEEHOEHE>
    <ogr:URL_INTERN> </ogr:URL_INTERN>
    <ogr:URL_EXTERN> </ogr:URL_EXTERN>
    <ogr:POI_TYP>27</ogr:POI_TYP>
    <ogr:LAND>Tirol</ogr:LAND>
    <ogr:BILDUNG>0</ogr:BILDUNG>
    <ogr:JARPRO15>1</ogr:JARPRO15>
  </extensions>
</wpt>
<wpt lat="46.918992425100143" lon="12.380596348781845">
  <name>Wasserfall</name>
  <extensions>
    <ogr:OBJECTID>155</ogr:OBJECTID>
    <ogr:URL_INTERN> </ogr:URL_INTERN>
    <ogr:URL_EXTERN> </ogr:URL_EXTERN>
    <ogr:POI_TYP>33</ogr:POI_TYP>
    <ogr:LAND>Tirol</ogr:LAND>
    <ogr:BILDUNG>0</ogr:BILDUNG>
    <ogr:JARPRO15>1</ogr:JARPRO15>
  </extensions>
</wpt>
<wpt lat="46.904349506945124" lon="12.295986423009857">
  <name>Alpe Stalle</name>
  <extensions>
    <ogr:OBJECTID>156</ogr:OBJECTID>
    <ogr:SEEHOEHE>1714</ogr:SEEHOEHE>
    <ogr:URL_INTERN> </ogr:URL_INTERN>
    <ogr:URL_EXTERN> </ogr:URL_EXTERN>
    <ogr:POI_TYP>27</ogr:POI_TYP>
    <ogr:LAND>Tirol</ogr:LAND>
    <ogr:BILDUNG>0</ogr:BILDUNG>
    <ogr:JARPRO15>1</ogr:JARPRO15>
  </extensions>
</wpt>
<wpt lat="46.907624132823869" lon="12.298265238031506">
  <name>Stallefall</name>
  <extensions>
    <ogr:OBJECTID>157</ogr:OBJECTID>
    <ogr:URL_INTERN> </ogr:URL_INTERN>
    <ogr:URL_EXTERN> </ogr:URL_EXTERN>
    <ogr:POI_TYP>33</ogr:POI_TYP>
    <ogr:LAND>Tirol</ogr:LAND>
    <ogr:BILDUNG>0</ogr:BILDUNG>
    <ogr:JARPRO15>1</ogr:JARPRO15>
  </extensions>
</wpt>
<wpt lat="46.918468676528292" lon="12.311996484659614">
  <name>Trogach</name>
  <extensions>
    <ogr:OBJECTID>158</ogr:OBJECTID>
    <ogr:SEEHOEHE>1710</ogr:SEEHOEHE>
    <ogr:URL_INTERN> </ogr:URL_INTERN>
    <ogr:URL_EXTERN> </ogr:URL_EXTERN>
    <ogr:POI_TYP>27</ogr:POI_TYP>
    <ogr:LAND>Tirol</ogr:LAND>
    <ogr:BILDUNG>0</ogr:BILDUNG>
    <ogr:JARPRO15>1</ogr:JARPRO15>
  </extensions>
</wpt>
<wpt lat="46.918782746260689" lon="12.258852383370302">
  <name>Wasserfall</name>
  <extensions>
    <ogr:OBJECTID>159</ogr:OBJECTID>
    <ogr:URL_INTERN> </ogr:URL_INTERN>
    <ogr:URL_EXTERN> </ogr:URL_EXTERN>
    <ogr:POI_TYP>33</ogr:POI_TYP>
    <ogr:LAND>Tirol</ogr:LAND>
    <ogr:BILDUNG>0</ogr:BILDUNG>
    <ogr:JARPRO15>1</ogr:JARPRO15>
  </extensions>
</wpt>
<wpt lat="46.916744478941801" lon="12.260816802384248">
  <name>Erlsbach</name>
  <extensions>
    <ogr:OBJECTID>160</ogr:OBJECTID>
    <ogr:URL_INTERN> </ogr:URL_INTERN>
    <ogr:URL_EXTERN> </ogr:URL_EXTERN>
    <ogr:POI_TYP>27</ogr:POI_TYP>
    <ogr:LAND>Tirol</ogr:LAND>
    <ogr:BILDUNG>0</ogr:BILDUNG>
    <ogr:JARPRO15>1</ogr:JARPRO15>
  </extensions>
</wpt>
<wpt lat="46.917169108916603" lon="12.25384618282046">
  <name>Mautstelle Erlsbach</name>
  <extensions>
    <ogr:OBJECTID>161</ogr:OBJECTID>
    <ogr:URL_INTERN> </ogr:URL_INTERN>
    <ogr:URL_EXTERN> </ogr:URL_EXTERN>
    <ogr:POI_TYP>23</ogr:POI_TYP>
    <ogr:LAND>Tirol</ogr:LAND>
    <ogr:BILDUNG>0</ogr:BILDUNG>
    <ogr:JARPRO15>1</ogr:JARPRO15>
  </extensions>
</wpt>
<wpt lat="46.95013510244938" lon="12.218578329502533">
  <name>Wasserfall</name>
  <extensions>
    <ogr:OBJECTID>162</ogr:OBJECTID>
    <ogr:URL_INTERN> </ogr:URL_INTERN>
    <ogr:URL_EXTERN> </ogr:URL_EXTERN>
    <ogr:POI_TYP>33</ogr:POI_TYP>
    <ogr:LAND>Tirol</ogr:LAND>
    <ogr:BILDUNG>0</ogr:BILDUNG>
    <ogr:JARPRO15>1</ogr:JARPRO15>
  </extensions>
</wpt>
<wpt lat="46.999208080384193" lon="12.482865916701849">
  <name>Mühle</name>
  <extensions>
    <ogr:OBJECTID>163</ogr:OBJECTID>
    <ogr:URL_INTERN> </ogr:URL_INTERN>
    <ogr:URL_EXTERN> </ogr:URL_EXTERN>
    <ogr:POI_TYP>36</ogr:POI_TYP>
    <ogr:LAND>Tirol</ogr:LAND>
    <ogr:BILDUNG>0</ogr:BILDUNG>
    <ogr:JARPRO15>1</ogr:JARPRO15>
  </extensions>
</wpt>
<wpt lat="46.978747741019639" lon="12.553342098183663">
  <name>Mühle</name>
  <extensions>
    <ogr:OBJECTID>164</ogr:OBJECTID>
    <ogr:URL_INTERN> </ogr:URL_INTERN>
    <ogr:URL_EXTERN> </ogr:URL_EXTERN>
    <ogr:POI_TYP>36</ogr:POI_TYP>
    <ogr:LAND>Tirol</ogr:LAND>
    <ogr:BILDUNG>0</ogr:BILDUNG>
    <ogr:JARPRO15>1</ogr:JARPRO15>
  </extensions>
</wpt>
<wpt lat="46.987354749057175" lon="12.512373864232243">
  <name>Mühle</name>
  <extensions>
    <ogr:OBJECTID>165</ogr:OBJECTID>
    <ogr:URL_INTERN> </ogr:URL_INTERN>
    <ogr:URL_EXTERN> </ogr:URL_EXTERN>
    <ogr:POI_TYP>36</ogr:POI_TYP>
    <ogr:LAND>Tirol</ogr:LAND>
    <ogr:BILDUNG>0</ogr:BILDUNG>
    <ogr:JARPRO15>1</ogr:JARPRO15>
  </extensions>
</wpt>
<wpt lat="47.018862226487883" lon="12.339293310726779">
  <name>Mühle</name>
  <extensions>
    <ogr:OBJECTID>166</ogr:OBJECTID>
    <ogr:URL_INTERN> </ogr:URL_INTERN>
    <ogr:URL_EXTERN> </ogr:URL_EXTERN>
    <ogr:POI_TYP>36</ogr:POI_TYP>
    <ogr:LAND>Tirol</ogr:LAND>
    <ogr:BILDUNG>0</ogr:BILDUNG>
    <ogr:JARPRO15>1</ogr:JARPRO15>
  </extensions>
</wpt>
<wpt lat="47.020939174204173" lon="12.361469471118223">
  <name>Museum Oberbichl</name>
  <extensions>
    <ogr:OBJECTID>167</ogr:OBJECTID>
    <ogr:URL_INTERN> </ogr:URL_INTERN>
    <ogr:URL_EXTERN> </ogr:URL_EXTERN>
    <ogr:POI_TYP>31</ogr:POI_TYP>
    <ogr:LAND>Tirol</ogr:LAND>
    <ogr:BILDUNG>0</ogr:BILDUNG>
    <ogr:JARPRO15>1</ogr:JARPRO15>
  </extensions>
</wpt>
<wpt lat="47.045630698950013" lon="12.515098130819927">
  <name>Parkplatz Frossnitztal</name>
  <extensions>
    <ogr:OBJECTID>168</ogr:OBJECTID>
    <ogr:URL_INTERN> </ogr:URL_INTERN>
    <ogr:URL_EXTERN> </ogr:URL_EXTERN>
    <ogr:POI_TYP>21</ogr:POI_TYP>
    <ogr:LAND>Tirol</ogr:LAND>
    <ogr:BILDUNG>0</ogr:BILDUNG>
    <ogr:JARPRO15>1</ogr:JARPRO15>
  </extensions>
</wpt>
<wpt lat="47.119963553281302" lon="12.495890090228034">
  <name>Säge (Venezianergatter)</name>
  <extensions>
    <ogr:OBJECTID>169</ogr:OBJECTID>
    <ogr:URL_INTERN> </ogr:URL_INTERN>
    <ogr:URL_EXTERN> </ogr:URL_EXTERN>
    <ogr:POI_TYP>36</ogr:POI_TYP>
    <ogr:LAND>Tirol</ogr:LAND>
    <ogr:BILDUNG>0</ogr:BILDUNG>
    <ogr:JARPRO15>1</ogr:JARPRO15>
  </extensions>
</wpt>
<wpt lat="47.11893008802744" lon="12.497143543912459">
  <name>Infopoint Tauernhaus</name>
  <extensions>
    <ogr:OBJECTID>170</ogr:OBJECTID>
    <ogr:URL_INTERN> </ogr:URL_INTERN>
    <ogr:URL_EXTERN> </ogr:URL_EXTERN>
    <ogr:POI_TYP>11</ogr:POI_TYP>
    <ogr:LAND>Tirol</ogr:LAND>
    <ogr:BILDUNG>0</ogr:BILDUNG>
    <ogr:JARPRO15>1</ogr:JARPRO15>
  </extensions>
</wpt>
<wpt lat="46.879195968844066" lon="12.694012238700562">
  <name>Parkplatz Oberalkus</name>
  <extensions>
    <ogr:OBJECTID>171</ogr:OBJECTID>
    <ogr:URL_INTERN> </ogr:URL_INTERN>
    <ogr:URL_EXTERN> </ogr:URL_EXTERN>
    <ogr:POI_TYP>21</ogr:POI_TYP>
    <ogr:LAND>Tirol</ogr:LAND>
    <ogr:BILDUNG>0</ogr:BILDUNG>
    <ogr:JARPRO15>0</ogr:JARPRO15>
  </extensions>
</wpt>
<wpt lat="46.918051458759109" lon="12.380161673721979">
  <name>Mühle</name>
  <extensions>
    <ogr:OBJECTID>172</ogr:OBJECTID>
    <ogr:URL_INTERN> </ogr:URL_INTERN>
    <ogr:URL_EXTERN> </ogr:URL_EXTERN>
    <ogr:POI_TYP>36</ogr:POI_TYP>
    <ogr:LAND>Tirol</ogr:LAND>
    <ogr:BILDUNG>0</ogr:BILDUNG>
    <ogr:JARPRO15>1</ogr:JARPRO15>
  </extensions>
</wpt>
<wpt lat="46.913718256086206" lon="12.303917384879297">
  <name>Haus des Wassers</name>
  <extensions>
    <ogr:OBJECTID>173</ogr:OBJECTID>
    <ogr:URL_INTERN> </ogr:URL_INTERN>
    <ogr:URL_EXTERN> </ogr:URL_EXTERN>
    <ogr:POI_TYP>14</ogr:POI_TYP>
    <ogr:LAND>Tirol</ogr:LAND>
    <ogr:BILDUNG>1</ogr:BILDUNG>
    <ogr:JARPRO15>1</ogr:JARPRO15>
  </extensions>
</wpt>
<wpt lat="46.914660627473125" lon="12.335985959188834">
  <name>Wasserlehrweg St. Jakob</name>
  <extensions>
    <ogr:OBJECTID>174</ogr:OBJECTID>
    <ogr:URL_INTERN> </ogr:URL_INTERN>
    <ogr:URL_EXTERN> </ogr:URL_EXTERN>
    <ogr:POI_TYP>12</ogr:POI_TYP>
    <ogr:LAND>Tirol</ogr:LAND>
    <ogr:BILDUNG>0</ogr:BILDUNG>
    <ogr:JARPRO15>1</ogr:JARPRO15>
  </extensions>
</wpt>
<wpt lat="46.985929515693684" lon="12.635470143889352">
  <name>Aussichtsplattform Lesach Kalserbach</name>
  <extensions>
    <ogr:OBJECTID>175</ogr:OBJECTID>
    <ogr:URL_INTERN> </ogr:URL_INTERN>
    <ogr:URL_EXTERN> </ogr:URL_EXTERN>
    <ogr:POI_TYP>37</ogr:POI_TYP>
    <ogr:LAND>Tirol</ogr:LAND>
    <ogr:BILDUNG>0</ogr:BILDUNG>
    <ogr:JARPRO15>1</ogr:JARPRO15>
  </extensions>
</wpt>
<wpt lat="46.848127837928914" lon="12.77274897869504">
  <name>Natur und Kultur Nussdorfer Berg</name>
  <extensions>
    <ogr:OBJECTID>176</ogr:OBJECTID>
    <ogr:URL_INTERN> </ogr:URL_INTERN>
    <ogr:URL_EXTERN> </ogr:URL_EXTERN>
    <ogr:POI_TYP>29</ogr:POI_TYP>
    <ogr:LAND>Tirol</ogr:LAND>
    <ogr:BILDUNG>0</ogr:BILDUNG>
    <ogr:JARPRO15>1</ogr:JARPRO15>
  </extensions>
</wpt>
<wpt lat="46.851426939288871" lon="12.752751719955395">
  <name>Vogelwelt</name>
  <extensions>
    <ogr:OBJECTID>177</ogr:OBJECTID>
    <ogr:URL_INTERN> </ogr:URL_INTERN>
    <ogr:URL_EXTERN> </ogr:URL_EXTERN>
    <ogr:POI_TYP>29</ogr:POI_TYP>
    <ogr:LAND>Tirol</ogr:LAND>
    <ogr:BILDUNG>0</ogr:BILDUNG>
    <ogr:JARPRO15>0</ogr:JARPRO15>
  </extensions>
</wpt>
<wpt lat="46.919391395071877" lon="12.51533224450065">
  <name>Wasserwanderweg</name>
  <extensions>
    <ogr:OBJECTID>178</ogr:OBJECTID>
    <ogr:URL_INTERN> </ogr:URL_INTERN>
    <ogr:URL_EXTERN> </ogr:URL_EXTERN>
    <ogr:POI_TYP>29</ogr:POI_TYP>
    <ogr:LAND>Tirol</ogr:LAND>
    <ogr:BILDUNG>0</ogr:BILDUNG>
    <ogr:JARPRO15>0</ogr:JARPRO15>
  </extensions>
</wpt>
<wpt lat="46.930754011013732" lon="12.536658455634507">
  <name>Weg des Apollo</name>
  <extensions>
    <ogr:OBJECTID>179</ogr:OBJECTID>
    <ogr:URL_INTERN> </ogr:URL_INTERN>
    <ogr:URL_EXTERN> </ogr:URL_EXTERN>
    <ogr:POI_TYP>29</ogr:POI_TYP>
    <ogr:LAND>Tirol</ogr:LAND>
    <ogr:BILDUNG>0</ogr:BILDUNG>
    <ogr:JARPRO15>1</ogr:JARPRO15>
  </extensions>
</wpt>
<wpt lat="46.981555080058179" lon="12.640500623613157">
  <name>Parkplatz Lesach</name>
  <extensions>
    <ogr:OBJECTID>180</ogr:OBJECTID>
    <ogr:URL_INTERN> </ogr:URL_INTERN>
    <ogr:URL_EXTERN> </ogr:URL_EXTERN>
    <ogr:POI_TYP>21</ogr:POI_TYP>
    <ogr:LAND>Tirol</ogr:LAND>
    <ogr:BILDUNG>0</ogr:BILDUNG>
    <ogr:JARPRO15>0</ogr:JARPRO15>
  </extensions>
</wpt>
<wpt lat="47.001241532368653" lon="12.644972400681866">
  <name>Glocknerhaus Kals</name>
  <extensions>
    <ogr:OBJECTID>181</ogr:OBJECTID>
    <ogr:URL_INTERN> </ogr:URL_INTERN>
    <ogr:URL_EXTERN> </ogr:URL_EXTERN>
    <ogr:POI_TYP>31</ogr:POI_TYP>
    <ogr:LAND>Tirol</ogr:LAND>
    <ogr:BILDUNG>1</ogr:BILDUNG>
    <ogr:JARPRO15>1</ogr:JARPRO15>
  </extensions>
</wpt>
<wpt lat="47.012605452266577" lon="12.639453346199485">
  <name>Stockmühlen</name>
  <extensions>
    <ogr:OBJECTID>182</ogr:OBJECTID>
    <ogr:URL_INTERN> </ogr:URL_INTERN>
    <ogr:URL_EXTERN> </ogr:URL_EXTERN>
    <ogr:POI_TYP>36</ogr:POI_TYP>
    <ogr:LAND>Tirol</ogr:LAND>
    <ogr:BILDUNG>0</ogr:BILDUNG>
    <ogr:JARPRO15>1</ogr:JARPRO15>
  </extensions>
</wpt>
<wpt lat="46.935232519853848" lon="12.414248209709449">
  <name>Speikbodenhütte</name>
  <extensions>
    <ogr:OBJECTID>183</ogr:OBJECTID>
    <ogr:SEEHOEHE>2030</ogr:SEEHOEHE>
    <ogr:URL_INTERN> </ogr:URL_INTERN>
    <ogr:URL_EXTERN> </ogr:URL_EXTERN>
    <ogr:POI_TYP>26</ogr:POI_TYP>
    <ogr:LAND>Tirol</ogr:LAND>
    <ogr:BILDUNG>0</ogr:BILDUNG>
    <ogr:JARPRO15>1</ogr:JARPRO15>
  </extensions>
</wpt>
<wpt lat="47.020379881921073" lon="12.421296801785743">
  <name>Niljochhütte</name>
  <extensions>
    <ogr:OBJECTID>184</ogr:OBJECTID>
    <ogr:SEEHOEHE>1975</ogr:SEEHOEHE>
    <ogr:URL_INTERN>http://www.alpenvereinshuetten.at</ogr:URL_INTERN>
    <ogr:URL_EXTERN> </ogr:URL_EXTERN>
    <ogr:POI_TYP>26</ogr:POI_TYP>
    <ogr:LAND>Tirol</ogr:LAND>
    <ogr:BILDUNG>0</ogr:BILDUNG>
    <ogr:JARPRO15>1</ogr:JARPRO15>
  </extensions>
</wpt>
<wpt lat="47.081154395154549" lon="12.425619075868401">
  <name>Badener Hütte</name>
  <extensions>
    <ogr:OBJECTID>185</ogr:OBJECTID>
    <ogr:SEEHOEHE>2608</ogr:SEEHOEHE>
    <ogr:URL_INTERN>http://www.alpenvereinshuetten.at</ogr:URL_INTERN>
    <ogr:URL_EXTERN> </ogr:URL_EXTERN>
    <ogr:POI_TYP>26</ogr:POI_TYP>
    <ogr:LAND>Tirol</ogr:LAND>
    <ogr:BILDUNG>0</ogr:BILDUNG>
    <ogr:JARPRO15>1</ogr:JARPRO15>
  </extensions>
</wpt>
<wpt lat="47.03905435342331" lon="12.427518091970571">
  <name>Bonn-Matreier-Hütte</name>
  <extensions>
    <ogr:OBJECTID>186</ogr:OBJECTID>
    <ogr:SEEHOEHE>2745</ogr:SEEHOEHE>
    <ogr:URL_INTERN>http://www.alpenvereinshuetten.at</ogr:URL_INTERN>
    <ogr:URL_EXTERN> </ogr:URL_EXTERN>
    <ogr:POI_TYP>26</ogr:POI_TYP>
    <ogr:LAND>Tirol</ogr:LAND>
    <ogr:BILDUNG>0</ogr:BILDUNG>
    <ogr:JARPRO15>1</ogr:JARPRO15>
  </extensions>
</wpt>
<wpt lat="46.957566315812066" lon="12.436705209220138">
  <name>Zupalseehütte</name>
  <extensions>
    <ogr:OBJECTID>187</ogr:OBJECTID>
    <ogr:SEEHOEHE>2346</ogr:SEEHOEHE>
    <ogr:URL_INTERN>http://www.alpenvereinshuetten.at</ogr:URL_INTERN>
    <ogr:URL_EXTERN> </ogr:URL_EXTERN>
    <ogr:POI_TYP>26</ogr:POI_TYP>
    <ogr:LAND>Tirol</ogr:LAND>
    <ogr:BILDUNG>0</ogr:BILDUNG>
    <ogr:JARPRO15>1</ogr:JARPRO15>
  </extensions>
</wpt>
<wpt lat="47.019324164514416" lon="12.439531415959845">
  <name>Gotschaunalm</name>
  <extensions>
    <ogr:OBJECTID>188</ogr:OBJECTID>
    <ogr:SEEHOEHE>1943</ogr:SEEHOEHE>
    <ogr:URL_INTERN> </ogr:URL_INTERN>
    <ogr:URL_EXTERN> </ogr:URL_EXTERN>
    <ogr:POI_TYP>27</ogr:POI_TYP>
    <ogr:LAND>Tirol</ogr:LAND>
    <ogr:BILDUNG>0</ogr:BILDUNG>
    <ogr:JARPRO15>1</ogr:JARPRO15>
  </extensions>
</wpt>
<wpt lat="47.123834253030068" lon="12.451345193127795">
  <name>Venedigerhaus</name>
  <extensions>
    <ogr:OBJECTID>189</ogr:OBJECTID>
    <ogr:SEEHOEHE>1689</ogr:SEEHOEHE>
    <ogr:URL_INTERN>http://www.alpenvereinshuetten.at</ogr:URL_INTERN>
    <ogr:URL_EXTERN> </ogr:URL_EXTERN>
    <ogr:POI_TYP>26</ogr:POI_TYP>
    <ogr:LAND>Tirol</ogr:LAND>
    <ogr:BILDUNG>0</ogr:BILDUNG>
    <ogr:JARPRO15>1</ogr:JARPRO15>
  </extensions>
</wpt>
<wpt lat="46.978156425919721" lon="12.459273843494326">
  <name>Wetterkreuzhütte</name>
  <extensions>
    <ogr:OBJECTID>190</ogr:OBJECTID>
    <ogr:SEEHOEHE>2106</ogr:SEEHOEHE>
    <ogr:URL_INTERN>http://www.alpenvereinshuetten.at</ogr:URL_INTERN>
    <ogr:URL_EXTERN> </ogr:URL_EXTERN>
    <ogr:POI_TYP>27</ogr:POI_TYP>
    <ogr:LAND>Tirol</ogr:LAND>
    <ogr:BILDUNG>0</ogr:BILDUNG>
    <ogr:JARPRO15>1</ogr:JARPRO15>
  </extensions>
</wpt>
<wpt lat="47.056038906065616" lon="12.466976303813764">
  <name>Resinger Alm</name>
  <extensions>
    <ogr:OBJECTID>191</ogr:OBJECTID>
    <ogr:SEEHOEHE>1820</ogr:SEEHOEHE>
    <ogr:URL_INTERN> </ogr:URL_INTERN>
    <ogr:URL_EXTERN> </ogr:URL_EXTERN>
    <ogr:POI_TYP>27</ogr:POI_TYP>
    <ogr:LAND>Tirol</ogr:LAND>
    <ogr:BILDUNG>0</ogr:BILDUNG>
    <ogr:JARPRO15>1</ogr:JARPRO15>
  </extensions>
</wpt>
<wpt lat="47.015120535195123" lon="12.530481572263641">
  <name>Parkplatz Prosseg</name>
  <extensions>
    <ogr:OBJECTID>192</ogr:OBJECTID>
    <ogr:URL_INTERN> </ogr:URL_INTERN>
    <ogr:URL_EXTERN> </ogr:URL_EXTERN>
    <ogr:POI_TYP>21</ogr:POI_TYP>
    <ogr:LAND>Tirol</ogr:LAND>
    <ogr:BILDUNG>0</ogr:BILDUNG>
    <ogr:JARPRO15>0</ogr:JARPRO15>
  </extensions>
</wpt>
<wpt lat="47.127832528608643" lon="12.470653923896386">
  <name>Außergschlössalm</name>
  <extensions>
    <ogr:OBJECTID>193</ogr:OBJECTID>
    <ogr:SEEHOEHE>1680</ogr:SEEHOEHE>
    <ogr:URL_INTERN> </ogr:URL_INTERN>
    <ogr:URL_EXTERN> </ogr:URL_EXTERN>
    <ogr:POI_TYP>27</ogr:POI_TYP>
    <ogr:LAND>Tirol</ogr:LAND>
    <ogr:BILDUNG>0</ogr:BILDUNG>
    <ogr:JARPRO15>1</ogr:JARPRO15>
  </extensions>
</wpt>
<wpt lat="47.119045367113763" lon="12.496530417314606">
  <name>Matreier Tauernhaus</name>
  <extensions>
    <ogr:OBJECTID>194</ogr:OBJECTID>
    <ogr:SEEHOEHE>1511</ogr:SEEHOEHE>
    <ogr:URL_INTERN>http://www.alpenvereinshuetten.at</ogr:URL_INTERN>
    <ogr:URL_EXTERN> </ogr:URL_EXTERN>
    <ogr:POI_TYP>26</ogr:POI_TYP>
    <ogr:LAND>Tirol</ogr:LAND>
    <ogr:BILDUNG>0</ogr:BILDUNG>
    <ogr:JARPRO15>1</ogr:JARPRO15>
  </extensions>
</wpt>
<wpt lat="46.966632683433438" lon="12.500075757846473">
  <name>Arnitzalm</name>
  <extensions>
    <ogr:OBJECTID>195</ogr:OBJECTID>
    <ogr:SEEHOEHE>1848</ogr:SEEHOEHE>
    <ogr:URL_INTERN> </ogr:URL_INTERN>
    <ogr:URL_EXTERN> </ogr:URL_EXTERN>
    <ogr:POI_TYP>26</ogr:POI_TYP>
    <ogr:LAND>Tirol</ogr:LAND>
    <ogr:BILDUNG>0</ogr:BILDUNG>
    <ogr:JARPRO15>1</ogr:JARPRO15>
  </extensions>
</wpt>
<wpt lat="47.014229664870292" lon="12.506180489987393">
  <name>Wodenalm</name>
  <extensions>
    <ogr:OBJECTID>196</ogr:OBJECTID>
    <ogr:SEEHOEHE>1804</ogr:SEEHOEHE>
    <ogr:URL_INTERN> </ogr:URL_INTERN>
    <ogr:URL_EXTERN> </ogr:URL_EXTERN>
    <ogr:POI_TYP>27</ogr:POI_TYP>
    <ogr:LAND>Tirol</ogr:LAND>
    <ogr:BILDUNG>0</ogr:BILDUNG>
    <ogr:JARPRO15>1</ogr:JARPRO15>
  </extensions>
</wpt>
<wpt lat="46.973018653135952" lon="12.518929797121626">
  <name>Zunigalm</name>
  <extensions>
    <ogr:OBJECTID>197</ogr:OBJECTID>
    <ogr:SEEHOEHE>1855</ogr:SEEHOEHE>
    <ogr:URL_INTERN> </ogr:URL_INTERN>
    <ogr:URL_EXTERN> </ogr:URL_EXTERN>
    <ogr:POI_TYP>26</ogr:POI_TYP>
    <ogr:LAND>Tirol</ogr:LAND>
    <ogr:BILDUNG>0</ogr:BILDUNG>
    <ogr:JARPRO15>1</ogr:JARPRO15>
  </extensions>
</wpt>
<wpt lat="46.93893480609907" lon="12.541440519716685">
  <name>Glanzalm</name>
  <extensions>
    <ogr:OBJECTID>198</ogr:OBJECTID>
    <ogr:SEEHOEHE>1975</ogr:SEEHOEHE>
    <ogr:URL_INTERN> </ogr:URL_INTERN>
    <ogr:URL_EXTERN> </ogr:URL_EXTERN>
    <ogr:POI_TYP>27</ogr:POI_TYP>
    <ogr:LAND>Tirol</ogr:LAND>
    <ogr:BILDUNG>0</ogr:BILDUNG>
    <ogr:JARPRO15>1</ogr:JARPRO15>
  </extensions>
</wpt>
<wpt lat="47.048314926250349" lon="12.621800879056265">
  <name>Bergeralm</name>
  <extensions>
    <ogr:OBJECTID>199</ogr:OBJECTID>
    <ogr:SEEHOEHE>1636</ogr:SEEHOEHE>
    <ogr:URL_INTERN> </ogr:URL_INTERN>
    <ogr:URL_EXTERN> </ogr:URL_EXTERN>
    <ogr:POI_TYP>27</ogr:POI_TYP>
    <ogr:LAND>Tirol</ogr:LAND>
    <ogr:BILDUNG>0</ogr:BILDUNG>
    <ogr:JARPRO15>1</ogr:JARPRO15>
  </extensions>
</wpt>
<wpt lat="47.070698365582523" lon="12.623864074535168">
  <name>Kalser Tauernhaus</name>
  <extensions>
    <ogr:OBJECTID>200</ogr:OBJECTID>
    <ogr:SEEHOEHE>1754</ogr:SEEHOEHE>
    <ogr:URL_INTERN>http://www.alpenvereinshuetten.at</ogr:URL_INTERN>
    <ogr:URL_EXTERN> </ogr:URL_EXTERN>
    <ogr:POI_TYP>26</ogr:POI_TYP>
    <ogr:LAND>Tirol</ogr:LAND>
    <ogr:BILDUNG>0</ogr:BILDUNG>
    <ogr:JARPRO15>1</ogr:JARPRO15>
  </extensions>
</wpt>
<wpt lat="46.863889715052586" lon="12.829469731976406">
  <name>Parkplatz GH Säge</name>
  <extensions>
    <ogr:OBJECTID>201</ogr:OBJECTID>
    <ogr:SEEHOEHE>1143</ogr:SEEHOEHE>
    <ogr:URL_INTERN> </ogr:URL_INTERN>
    <ogr:URL_EXTERN> </ogr:URL_EXTERN>
    <ogr:POI_TYP>21</ogr:POI_TYP>
    <ogr:LAND>Tirol</ogr:LAND>
    <ogr:BILDUNG>0</ogr:BILDUNG>
    <ogr:JARPRO15>0</ogr:JARPRO15>
  </extensions>
</wpt>
<wpt lat="46.858708355310263" lon="12.811613250503092">
  <name>Parkplatz Faschingalm</name>
  <extensions>
    <ogr:OBJECTID>202</ogr:OBJECTID>
    <ogr:SEEHOEHE>1660</ogr:SEEHOEHE>
    <ogr:URL_INTERN> </ogr:URL_INTERN>
    <ogr:URL_EXTERN> </ogr:URL_EXTERN>
    <ogr:POI_TYP>21</ogr:POI_TYP>
    <ogr:LAND>Tirol</ogr:LAND>
    <ogr:BILDUNG>0</ogr:BILDUNG>
    <ogr:JARPRO15>1</ogr:JARPRO15>
  </extensions>
</wpt>
<wpt lat="46.865203617210945" lon="12.787125658638894">
  <name>Parkplatz Rottmannalm</name>
  <extensions>
    <ogr:OBJECTID>203</ogr:OBJECTID>
    <ogr:SEEHOEHE>1900</ogr:SEEHOEHE>
    <ogr:URL_INTERN> </ogr:URL_INTERN>
    <ogr:URL_EXTERN> </ogr:URL_EXTERN>
    <ogr:POI_TYP>21</ogr:POI_TYP>
    <ogr:LAND>Tirol</ogr:LAND>
    <ogr:BILDUNG>0</ogr:BILDUNG>
    <ogr:JARPRO15>0</ogr:JARPRO15>
  </extensions>
</wpt>
<wpt lat="47.020790481483033" lon="12.687945690490135">
  <name>Lucknerhaus</name>
  <extensions>
    <ogr:OBJECTID>204</ogr:OBJECTID>
    <ogr:SEEHOEHE>1918</ogr:SEEHOEHE>
    <ogr:URL_INTERN>http://www.alpenvereinshuetten.at</ogr:URL_INTERN>
    <ogr:URL_EXTERN> </ogr:URL_EXTERN>
    <ogr:POI_TYP>26</ogr:POI_TYP>
    <ogr:LAND>Tirol</ogr:LAND>
    <ogr:BILDUNG>0</ogr:BILDUNG>
    <ogr:JARPRO15>1</ogr:JARPRO15>
  </extensions>
</wpt>
<wpt lat="46.925165149345929" lon="12.699457335937081">
  <name>Hochschoberhütte</name>
  <extensions>
    <ogr:OBJECTID>205</ogr:OBJECTID>
    <ogr:SEEHOEHE>2322</ogr:SEEHOEHE>
    <ogr:URL_INTERN>http://www.alpenvereinshuetten.at</ogr:URL_INTERN>
    <ogr:URL_EXTERN> </ogr:URL_EXTERN>
    <ogr:POI_TYP>26</ogr:POI_TYP>
    <ogr:LAND>Tirol</ogr:LAND>
    <ogr:BILDUNG>0</ogr:BILDUNG>
    <ogr:JARPRO15>1</ogr:JARPRO15>
  </extensions>
</wpt>
<wpt lat="46.934801619471834" lon="12.74657129451737">
  <name>Lienzer Hütte</name>
  <extensions>
    <ogr:OBJECTID>206</ogr:OBJECTID>
    <ogr:SEEHOEHE>1974</ogr:SEEHOEHE>
    <ogr:URL_INTERN>http://www.alpenvereinshuetten.at</ogr:URL_INTERN>
    <ogr:URL_EXTERN> </ogr:URL_EXTERN>
    <ogr:POI_TYP>26</ogr:POI_TYP>
    <ogr:LAND>Tirol</ogr:LAND>
    <ogr:BILDUNG>0</ogr:BILDUNG>
    <ogr:JARPRO15>1</ogr:JARPRO15>
  </extensions>
</wpt>
<wpt lat="47.032388691686961" lon="12.628508189927489">
  <name>Moaalm</name>
  <extensions>
    <ogr:OBJECTID>207</ogr:OBJECTID>
    <ogr:SEEHOEHE>1793</ogr:SEEHOEHE>
    <ogr:URL_INTERN> </ogr:URL_INTERN>
    <ogr:URL_EXTERN> </ogr:URL_EXTERN>
    <ogr:POI_TYP>26</ogr:POI_TYP>
    <ogr:LAND>Tirol</ogr:LAND>
    <ogr:BILDUNG>0</ogr:BILDUNG>
    <ogr:JARPRO15>1</ogr:JARPRO15>
  </extensions>
</wpt>
<wpt lat="47.006945130292351" lon="12.639176742265933">
  <name>Parkplatz Kalser Bergbahnen</name>
  <extensions>
    <ogr:OBJECTID>208</ogr:OBJECTID>
    <ogr:SEEHOEHE>1370</ogr:SEEHOEHE>
    <ogr:URL_INTERN> </ogr:URL_INTERN>
    <ogr:URL_EXTERN> </ogr:URL_EXTERN>
    <ogr:POI_TYP>21</ogr:POI_TYP>
    <ogr:LAND>Tirol</ogr:LAND>
    <ogr:BILDUNG>0</ogr:BILDUNG>
    <ogr:JARPRO15>0</ogr:JARPRO15>
  </extensions>
</wpt>
<wpt lat="47.03474216924009" lon="12.626035653789149">
  <name>Parkplatz Moaralm</name>
  <extensions>
    <ogr:OBJECTID>209</ogr:OBJECTID>
    <ogr:SEEHOEHE>1810</ogr:SEEHOEHE>
    <ogr:URL_INTERN> </ogr:URL_INTERN>
    <ogr:URL_EXTERN> </ogr:URL_EXTERN>
    <ogr:POI_TYP>21</ogr:POI_TYP>
    <ogr:LAND>Tirol</ogr:LAND>
    <ogr:BILDUNG>0</ogr:BILDUNG>
    <ogr:JARPRO15>0</ogr:JARPRO15>
  </extensions>
</wpt>
<wpt lat="47.015065301515698" lon="12.606782670592345">
  <name>Bergrestaurant Blauspitz</name>
  <extensions>
    <ogr:OBJECTID>210</ogr:OBJECTID>
    <ogr:SEEHOEHE>2305</ogr:SEEHOEHE>
    <ogr:URL_INTERN> </ogr:URL_INTERN>
    <ogr:URL_EXTERN> </ogr:URL_EXTERN>
    <ogr:POI_TYP>27</ogr:POI_TYP>
    <ogr:LAND>Tirol</ogr:LAND>
    <ogr:BILDUNG>0</ogr:BILDUNG>
    <ogr:JARPRO15>1</ogr:JARPRO15>
  </extensions>
</wpt>
<wpt lat="47.030431637436294" lon="12.549087089146717">
  <name>Äussere Steiner Alm</name>
  <extensions>
    <ogr:OBJECTID>211</ogr:OBJECTID>
    <ogr:SEEHOEHE>1909</ogr:SEEHOEHE>
    <ogr:URL_INTERN> </ogr:URL_INTERN>
    <ogr:URL_EXTERN> </ogr:URL_EXTERN>
    <ogr:POI_TYP>27</ogr:POI_TYP>
    <ogr:LAND>Tirol</ogr:LAND>
    <ogr:BILDUNG>0</ogr:BILDUNG>
    <ogr:JARPRO15>1</ogr:JARPRO15>
  </extensions>
</wpt>
<wpt lat="47.010315356643538" lon="12.623706240931854">
  <name>Bergrestaurant Glocknerblick</name>
  <extensions>
    <ogr:OBJECTID>212</ogr:OBJECTID>
    <ogr:SEEHOEHE>1933</ogr:SEEHOEHE>
    <ogr:URL_INTERN> </ogr:URL_INTERN>
    <ogr:URL_EXTERN> </ogr:URL_EXTERN>
    <ogr:POI_TYP>27</ogr:POI_TYP>
    <ogr:LAND>Tirol</ogr:LAND>
    <ogr:BILDUNG>0</ogr:BILDUNG>
    <ogr:JARPRO15>1</ogr:JARPRO15>
  </extensions>
</wpt>
<wpt lat="47.043153024258906" lon="12.529809312486664">
  <name>Innere Steineralm</name>
  <extensions>
    <ogr:OBJECTID>213</ogr:OBJECTID>
    <ogr:SEEHOEHE>1770</ogr:SEEHOEHE>
    <ogr:URL_INTERN> </ogr:URL_INTERN>
    <ogr:URL_EXTERN> </ogr:URL_EXTERN>
    <ogr:POI_TYP>27</ogr:POI_TYP>
    <ogr:LAND>Tirol</ogr:LAND>
    <ogr:BILDUNG>0</ogr:BILDUNG>
    <ogr:JARPRO15>1</ogr:JARPRO15>
  </extensions>
</wpt>
<wpt lat="47.049372352785234" lon="12.576271344816197">
  <name>Sudetendeutsche Hütte</name>
  <extensions>
    <ogr:OBJECTID>214</ogr:OBJECTID>
    <ogr:SEEHOEHE>2650</ogr:SEEHOEHE>
    <ogr:URL_INTERN>http://www.alpenvereinshuetten.at</ogr:URL_INTERN>
    <ogr:URL_EXTERN> </ogr:URL_EXTERN>
    <ogr:POI_TYP>26</ogr:POI_TYP>
    <ogr:LAND>Tirol</ogr:LAND>
    <ogr:BILDUNG>0</ogr:BILDUNG>
    <ogr:JARPRO15>1</ogr:JARPRO15>
  </extensions>
</wpt>
<wpt lat="46.927705126225042" lon="12.227686846577903">
  <name>Parkplatz Patscherhütte</name>
  <extensions>
    <ogr:OBJECTID>215</ogr:OBJECTID>
    <ogr:SEEHOEHE>1670</ogr:SEEHOEHE>
    <ogr:URL_INTERN> </ogr:URL_INTERN>
    <ogr:URL_EXTERN> </ogr:URL_EXTERN>
    <ogr:POI_TYP>21</ogr:POI_TYP>
    <ogr:LAND>Tirol</ogr:LAND>
    <ogr:BILDUNG>0</ogr:BILDUNG>
    <ogr:JARPRO15>1</ogr:JARPRO15>
  </extensions>
</wpt>
<wpt lat="47.022061448869373" lon="12.689428497669232">
  <name>Parkplatz Lucknerhaus 2</name>
  <extensions>
    <ogr:OBJECTID>216</ogr:OBJECTID>
    <ogr:SEEHOEHE>1918</ogr:SEEHOEHE>
    <ogr:URL_INTERN> </ogr:URL_INTERN>
    <ogr:URL_EXTERN> </ogr:URL_EXTERN>
    <ogr:POI_TYP>21</ogr:POI_TYP>
    <ogr:LAND>Tirol</ogr:LAND>
    <ogr:BILDUNG>0</ogr:BILDUNG>
    <ogr:JARPRO15>1</ogr:JARPRO15>
  </extensions>
</wpt>
<wpt lat="47.021029914229132" lon="12.688244885641463">
  <name>Parkplatz Lucknerhaus 1</name>
  <extensions>
    <ogr:OBJECTID>217</ogr:OBJECTID>
    <ogr:SEEHOEHE>1918</ogr:SEEHOEHE>
    <ogr:URL_INTERN> </ogr:URL_INTERN>
    <ogr:URL_EXTERN> </ogr:URL_EXTERN>
    <ogr:POI_TYP>21</ogr:POI_TYP>
    <ogr:LAND>Tirol</ogr:LAND>
    <ogr:BILDUNG>0</ogr:BILDUNG>
    <ogr:JARPRO15>0</ogr:JARPRO15>
  </extensions>
</wpt>
<wpt lat="47.039617366566944" lon="12.690511199582856">
  <name>Lucknerhütte</name>
  <extensions>
    <ogr:OBJECTID>218</ogr:OBJECTID>
    <ogr:SEEHOEHE>2241</ogr:SEEHOEHE>
    <ogr:URL_INTERN>http://www.alpenvereinshuetten.at</ogr:URL_INTERN>
    <ogr:URL_EXTERN> </ogr:URL_EXTERN>
    <ogr:POI_TYP>26</ogr:POI_TYP>
    <ogr:LAND>Tirol</ogr:LAND>
    <ogr:BILDUNG>0</ogr:BILDUNG>
    <ogr:JARPRO15>1</ogr:JARPRO15>
  </extensions>
</wpt>
<wpt lat="47.054817913624021" lon="12.681082271025538">
  <name>Stüdlhütte</name>
  <extensions>
    <ogr:OBJECTID>219</ogr:OBJECTID>
    <ogr:SEEHOEHE>2801</ogr:SEEHOEHE>
    <ogr:URL_INTERN>http://www.alpenvereinshuetten.at</ogr:URL_INTERN>
    <ogr:URL_EXTERN> </ogr:URL_EXTERN>
    <ogr:POI_TYP>26</ogr:POI_TYP>
    <ogr:LAND>Tirol</ogr:LAND>
    <ogr:BILDUNG>0</ogr:BILDUNG>
    <ogr:JARPRO15>1</ogr:JARPRO15>
  </extensions>
</wpt>
<wpt lat="47.07794172918922" lon="12.459592098997506">
  <name>Knappenhaus Froßnitz</name>
  <extensions>
    <ogr:OBJECTID>220</ogr:OBJECTID>
    <ogr:POI_TYP>31</ogr:POI_TYP>
    <ogr:LAND>Tirol</ogr:LAND>
  </extensions>
</wpt>
<wpt lat="47.129915096154008" lon="12.515451101967964">
  <name>Grünseehütte (Selbstversorgerhütte)</name>
  <extensions>
    <ogr:OBJECTID>221</ogr:OBJECTID>
    <ogr:URL_EXTERN>www.alpenverein.at</ogr:URL_EXTERN>
    <ogr:POI_TYP>28</ogr:POI_TYP>
    <ogr:LAND>Tirol</ogr:LAND>
  </extensions>
</wpt>
<wpt lat="47.005414279861284" lon="12.657535337775663">
  <name>Hängebrücke</name>
  <extensions>
    <ogr:OBJECTID>222</ogr:OBJECTID>
    <ogr:POI_TYP>37</ogr:POI_TYP>
    <ogr:LAND>Tirol</ogr:LAND>
  </extensions>
</wpt>
<wpt lat="47.001031877674698" lon="12.538167348678082">
  <name>Heimatmuseum Matrei</name>
  <extensions>
    <ogr:OBJECTID>223</ogr:OBJECTID>
    <ogr:POI_TYP>31</ogr:POI_TYP>
    <ogr:LAND>Tirol</ogr:LAND>
  </extensions>
</wpt>
<wpt lat="47.00970622680363" lon="12.285406394624232">
  <name>Obere Umbalfälle</name>
  <extensions>
    <ogr:OBJECTID>224</ogr:OBJECTID>
    <ogr:POI_TYP>33</ogr:POI_TYP>
    <ogr:LAND>Tirol</ogr:LAND>
  </extensions>
</wpt>
<wpt lat="47.019774490657603" lon="12.361640759708321">
  <name>Mitterkratzerhof</name>
  <extensions>
    <ogr:OBJECTID>225</ogr:OBJECTID>
    <ogr:POI_TYP>31</ogr:POI_TYP>
    <ogr:LAND>Tirol</ogr:LAND>
  </extensions>
</wpt>
<wpt lat="47.008242084292817" lon="12.42736914208932">
  <name>Parkplatz Budam</name>
  <extensions>
    <ogr:OBJECTID>226</ogr:OBJECTID>
    <ogr:POI_TYP>21</ogr:POI_TYP>
    <ogr:LAND>Tirol</ogr:LAND>
  </extensions>
</wpt>
<wpt lat="46.90084153517541" lon="12.221686587052426">
  <name>Staller Almen</name>
  <extensions>
    <ogr:OBJECTID>227</ogr:OBJECTID>
    <ogr:POI_TYP>27</ogr:POI_TYP>
    <ogr:LAND>Tirol</ogr:LAND>
  </extensions>
</wpt>
<wpt lat="46.897413196273071" lon="12.218625359236663">
  <name>Parkplatz Lackenstüberl</name>
  <extensions>
    <ogr:OBJECTID>228</ogr:OBJECTID>
    <ogr:POI_TYP>21</ogr:POI_TYP>
    <ogr:LAND>Tirol</ogr:LAND>
  </extensions>
</wpt>
<wpt lat="46.904396851191741" lon="12.229848886706355">
  <extensions>
    <ogr:OBJECTID>229</ogr:OBJECTID>
    <ogr:POI_TYP>21</ogr:POI_TYP>
    <ogr:LAND>Tirol</ogr:LAND>
  </extensions>
</wpt>
<wpt lat="46.904480666776742" lon="12.260495157370796">
  <name>Hirschbühel</name>
  <extensions>
    <ogr:OBJECTID>230</ogr:OBJECTID>
    <ogr:POI_TYP>37</ogr:POI_TYP>
    <ogr:LAND>Tirol</ogr:LAND>
  </extensions>
</wpt>
<wpt lat="47.001030173356341" lon="12.538326027621398">
  <name>TVB Infobüro Matrei</name>
  <extensions>
    <ogr:OBJECTID>231</ogr:OBJECTID>
    <ogr:POI_TYP>40</ogr:POI_TYP>
    <ogr:LAND>Tirol</ogr:LAND>
  </extensions>
</wpt>
<wpt lat="46.914379159220168" lon="12.77635769322046">
  <name>Wasserfall</name>
  <extensions>
    <ogr:OBJECTID>232</ogr:OBJECTID>
    <ogr:URL_INTERN> </ogr:URL_INTERN>
    <ogr:URL_EXTERN> </ogr:URL_EXTERN>
    <ogr:POI_TYP>33</ogr:POI_TYP>
    <ogr:LAND>Tirol</ogr:LAND>
    <ogr:BILDUNG>0</ogr:BILDUNG>
    <ogr:JARPRO15>1</ogr:JARPRO15>
  </extensions>
</wpt>
<wpt lat="46.887860754585859" lon="12.199738461696601">
  <name>Infopoint Staller Sattel</name>
  <extensions>
    <ogr:OBJECTID>233</ogr:OBJECTID>
    <ogr:POI_TYP>11</ogr:POI_TYP>
  </extensions>
</wpt>
<wpt lat="47.016298876474522" lon="12.374928431368048">
  <name>Parkplatz Prägraten Zentrum</name>
  <extensions>
    <ogr:OBJECTID>234</ogr:OBJECTID>
    <ogr:POI_TYP>21</ogr:POI_TYP>
    <ogr:LAND>Tirol</ogr:LAND>
    <ogr:JARPRO15>0</ogr:JARPRO15>
  </extensions>
</wpt>
<wpt lat="46.988821101114574" lon="12.522503578841064">
  <name>Parkplatz Nikolauskirche/Bichl</name>
  <extensions>
    <ogr:OBJECTID>235</ogr:OBJECTID>
    <ogr:POI_TYP>21</ogr:POI_TYP>
    <ogr:LAND>Tirol</ogr:LAND>
  </extensions>
</wpt>
<wpt lat="46.994631998476692" lon="12.482179715810885">
  <extensions>
    <ogr:OBJECTID>236</ogr:OBJECTID>
    <ogr:POI_TYP>21</ogr:POI_TYP>
    <ogr:LAND>Tirol</ogr:LAND>
  </extensions>
</wpt>
<wpt lat="47.002966476067897" lon="12.457732017502648">
  <name>Parkplatz Virgen Zentrum</name>
  <extensions>
    <ogr:OBJECTID>237</ogr:OBJECTID>
    <ogr:POI_TYP>21</ogr:POI_TYP>
    <ogr:LAND>Tirol</ogr:LAND>
  </extensions>
</wpt>
<wpt lat="47.004352667360386" lon="12.39825151344146">
  <name>Bergeralm</name>
  <extensions>
    <ogr:OBJECTID>238</ogr:OBJECTID>
    <ogr:POI_TYP>27</ogr:POI_TYP>
    <ogr:LAND>Tirol</ogr:LAND>
  </extensions>
</wpt>
<wpt lat="47.015055070957331" lon="12.368115400083825">
  <extensions>
    <ogr:OBJECTID>239</ogr:OBJECTID>
    <ogr:POI_TYP>21</ogr:POI_TYP>
    <ogr:LAND>Tirol</ogr:LAND>
    <ogr:JARPRO15>0</ogr:JARPRO15>
  </extensions>
</wpt>
<wpt lat="46.92798276357513" lon="12.227612948932974">
  <name>Infopoint-Patsch</name>
  <extensions>
    <ogr:OBJECTID>240</ogr:OBJECTID>
    <ogr:POI_TYP>11</ogr:POI_TYP>
    <ogr:LAND>Tirol</ogr:LAND>
  </extensions>
</wpt>
<wpt lat="46.992589535385719" lon="12.13684131478834">
  <name>Arventalalm</name>
  <extensions>
    <ogr:OBJECTID>241</ogr:OBJECTID>
    <ogr:POI_TYP>27</ogr:POI_TYP>
    <ogr:LAND>Tirol</ogr:LAND>
  </extensions>
</wpt>
<wpt lat="46.936406622978339" lon="12.417232711068996">
  <name>Infoplattform-Speikboden</name>
  <extensions>
    <ogr:OBJECTID>242</ogr:OBJECTID>
    <ogr:POI_TYP>29</ogr:POI_TYP>
    <ogr:LAND>Tirol</ogr:LAND>
    <ogr:JARPRO15>0</ogr:JARPRO15>
  </extensions>
</wpt>
<wpt lat="47.114709400593064" lon="12.425174388185329">
  <name>Auge Gottes</name>
  <extensions>
    <ogr:OBJECTID>243</ogr:OBJECTID>
    <ogr:POI_TYP>13</ogr:POI_TYP>
    <ogr:LAND>Tirol</ogr:LAND>
  </extensions>
</wpt>
<wpt lat="47.006756606989555" lon="12.410336554817926">
  <name>Parkplatz Berg</name>
  <extensions>
    <ogr:OBJECTID>244</ogr:OBJECTID>
    <ogr:POI_TYP>21</ogr:POI_TYP>
    <ogr:LAND>Tirol</ogr:LAND>
    <ogr:JARPRO15>0</ogr:JARPRO15>
  </extensions>
</wpt>
<wpt lat="47.022352190005925" lon="12.399179107039432">
  <name>Infopoint-Bodenalm</name>
  <extensions>
    <ogr:OBJECTID>245</ogr:OBJECTID>
    <ogr:POI_TYP>11</ogr:POI_TYP>
    <ogr:LAND>Tirol</ogr:LAND>
  </extensions>
</wpt>
<wpt lat="47.131031652855796" lon="12.569689707465601">
  <name>Karl-Fürst-Biwak</name>
  <extensions>
    <ogr:OBJECTID>246</ogr:OBJECTID>
    <ogr:POI_TYP>28</ogr:POI_TYP>
    <ogr:LAND>Tirol</ogr:LAND>
  </extensions>
</wpt>
<wpt lat="47.023683635103062" lon="12.332062635371472">
  <name>Taxizubringer Johannishütte</name>
  <extensions>
    <ogr:OBJECTID>247</ogr:OBJECTID>
    <ogr:POI_TYP>25</ogr:POI_TYP>
    <ogr:LAND>Tirol</ogr:LAND>
  </extensions>
</wpt>
<wpt lat="46.986618883182082" lon="12.649500728237975">
  <name>Parkplatz Oberlesach</name>
  <extensions>
    <ogr:OBJECTID>248</ogr:OBJECTID>
    <ogr:POI_TYP>21</ogr:POI_TYP>
    <ogr:LAND>Tirol</ogr:LAND>
    <ogr:JARPRO15>0</ogr:JARPRO15>
  </extensions>
</wpt>
<wpt lat="46.983482109216247" lon="12.64520815772315">
  <name>Mountain Bikestrecke Lesachtal</name>
  <extensions>
    <ogr:OBJECTID>249</ogr:OBJECTID>
    <ogr:POI_TYP>32</ogr:POI_TYP>
    <ogr:LAND>Tirol</ogr:LAND>
  </extensions>
</wpt>
<wpt lat="46.884710147398572" lon="12.493771199634146">
  <name>Bloshütte</name>
  <extensions>
    <ogr:OBJECTID>250</ogr:OBJECTID>
    <ogr:POI_TYP>27</ogr:POI_TYP>
    <ogr:LAND>Tirol</ogr:LAND>
  </extensions>
</wpt>
<wpt lat="46.893678585802334" lon="12.351625021557192">
  <name>Weißspitzhütte</name>
  <extensions>
    <ogr:OBJECTID>251</ogr:OBJECTID>
    <ogr:POI_TYP>27</ogr:POI_TYP>
    <ogr:LAND>Tirol</ogr:LAND>
  </extensions>
</wpt>
<wpt lat="47.185266112773007" lon="12.259682827839844">
  <name>Berndlalm</name>
  <extensions>
    <ogr:OBJECTID>252</ogr:OBJECTID>
    <ogr:SEEHOEHE>1510</ogr:SEEHOEHE>
    <ogr:URL_EXTERN> </ogr:URL_EXTERN>
    <ogr:POI_TYP>26</ogr:POI_TYP>
    <ogr:LAND>Salzburg</ogr:LAND>
    <ogr:BILDUNG>0</ogr:BILDUNG>
  </extensions>
</wpt>
<wpt lat="46.90900476775608" lon="12.298519294223393">
  <name>Mühle Stallebach</name>
  <extensions>
    <ogr:OBJECTID>253</ogr:OBJECTID>
    <ogr:POI_TYP>36</ogr:POI_TYP>
    <ogr:LAND>Tirol</ogr:LAND>
  </extensions>
</wpt>
<wpt lat="46.90796860595762" lon="12.297925814302381">
  <name>Aussichtsplattform Stallefall</name>
  <extensions>
    <ogr:OBJECTID>254</ogr:OBJECTID>
    <ogr:POI_TYP>13</ogr:POI_TYP>
    <ogr:LAND>Tirol</ogr:LAND>
  </extensions>
</wpt>
<wpt lat="46.92846394998751" lon="12.227371843100249">
  <name>Bienenpark Patsch </name>
  <extensions>
    <ogr:OBJECTID>255</ogr:OBJECTID>
    <ogr:POI_TYP>12</ogr:POI_TYP>
    <ogr:LAND>Tirol</ogr:LAND>
    <ogr:JARPRO15>0</ogr:JARPRO15>
  </extensions>
</wpt>
<wpt lat="47.198890599387454" lon="12.349875446303805">
  <name>Gasthof Alpenrose</name>
  <extensions>
    <ogr:OBJECTID>256</ogr:OBJECTID>
    <ogr:SEEHOEHE>1400</ogr:SEEHOEHE>
    <ogr:URL_INTERN> </ogr:URL_INTERN>
    <ogr:URL_EXTERN> </ogr:URL_EXTERN>
    <ogr:POI_TYP>26</ogr:POI_TYP>
    <ogr:LAND>Salzburg</ogr:LAND>
    <ogr:BILDUNG>0</ogr:BILDUNG>
  </extensions>
</wpt>